[
  {
    "lat": -12.128605,
    "lng": -76.977698,
    "name": "ag.prosegur",
    "department": "lima",
    "province": "lima",
    "district": "santiago de surco",
    "address": "av. moro solar nº 1030 oficina 9 urb. santa teresa de las gardenas",
    "customerschedule": "",
    "phones": "(01) 612-4507 / 612-4508"
  },
  {
    "lat": -12.097801,
    "lng": -77.055965,
    "name": "ag. salaverry",
    "department": "lima",
    "province": "lima",
    "district": "magdalena del mar",
    "address": "av. salaverry nº 3090",
    "customerschedule": "",
    "phones": "(01)612-4511 / 612-4512 / 612-4514"
  },
  {
    "lat": -12.092687,
    "lng": -77.024272,
    "name": "ag. begonias",
    "department": "lima",
    "province": "lima",
    "district": "san isidro",
    "address": "calle las begonias 459 - 461",
    "customerschedule": "",
    "phones": "(01) 612-4521 / 612-4522 / 612-4523 / 612-4524 / 612-4525 / 612-4526"
  },
  {
    "lat": -12.111365,
    "lng": -76.990364,
    "name": "ag. primavera",
    "department": "lima",
    "province": "lima",
    "district": "santiago de surco",
    "address": "av. primavera n° 356 urb. chacarilla del estanque",
    "customerschedule": "",
    "phones": "(01) 612-4540 / 612-4534 / 612-4535 / 612-4536 / 612-4538 / 612-4539"
  },
  {
    "lat": -11.991343,
    "lng": -77.070411,
    "name": "ag. los olivos",
    "department": "lima",
    "province": "lima",
    "district": "los olivos",
    "address": "av. carlos yzaguirre n° 797 urb. mercurio",
    "customerschedule": "",
    "phones": "(01) 612-4555 / 612-4548 / 612-4551 / 612-4550 / 612-4552"
  },
  {
    "lat": -11.99382,
    "lng": -77.059822,
    "name": "ag. mega plaza",
    "department": "lima",
    "province": "lima",
    "district": "independencia",
    "address": "av.industrial 3515 - 3517, interiores 61 y 62, panamericana norte mz f sub lote c, valle de la piedra liza cc megaplaza",
    "customerschedule": "",
    "phones": "(01) 612-4558 / 612-4557 / 612-4560"
  },
  {
    "lat": -12.077585,
    "lng": -77.085582,
    "name": "ag. la marina",
    "department": "lima",
    "province": "lima",
    "district": "san miguel",
    "address": "av la marina 2220 mz c 1-3 lt 2 urb pando",
    "customerschedule": "",
    "phones": "(01) 612-4547 / 612-4541 / 612-4542 / 612-4543 / 612-4544 / 612-4545 "
  },
  {
    "lat": -12.094434,
    "lng": -77.035865,
    "name": "ag. basadre",
    "department": "lima",
    "province": "lima",
    "district": "san isidro",
    "address": "av. jorge basadre 358",
    "customerschedule": "",
    "phones": "(01) 612-4582 / 612-4583 / 612-4584"
  },
  {
    "lat": -12.051618,
    "lng": -77.025855,
    "name": "ag. capón",
    "department": "lima",
    "province": "lima",
    "district": "lima",
    "address": "jr. andahuaylas n° 743",
    "customerschedule": "",
    "phones": "(01) 612-4588 / 612-4589 / 612-4590 / 612-4591"
  },
  {
    "lat": -12.127047,
    "lng": -77.029717,
    "name": "ag. larco",
    "department": "lima",
    "province": "lima",
    "district": "miraflores",
    "address": "av. larco n° 920-924",
    "customerschedule": "",
    "phones": "(01) 612-4592 / 612-4593 / 612-4595 / 612-4596 / 612-4597 / 612-4598 / 612-4599 "
  },
  {
    "lat": -12.052006,
    "lng": -77.033912,
    "name": "ag. plaza san martín",
    "department": "lima",
    "province": "lima",
    "district": "lima",
    "address": "jr. carabaya n° 891-899",
    "customerschedule": "",
    "phones": "(01) 612-4601 / 612-4602 / 612-4603 / 612-4604 / 612-4605"
  },
  {
    "lat": -12.082946,
    "lng": -76.928437,
    "name": "ag. molicentro",
    "department": "lima",
    "province": "lima",
    "district": "la molina",
    "address": "av. la universidad 2850, local b c.c. molicentro",
    "customerschedule": "",
    "phones": "(01) 612-4606 / 612-4607 / 612-4608 / 612-4609"
  },
  {
    "lat": -16.390102,
    "lng": -71.547968,
    "name": "ag. cayma",
    "department": "arequipa",
    "province": "arequipa",
    "district": "cayma",
    "address": "av. trinidad y morán n° 102, urb. los sauces",
    "customerschedule": "",
    "phones": "(054)-382561 / 054-382562 / 054-382563 / 054-382564 / 054-382565 / 054-382566 / 054-382567 / 054-382568"
  },
  {
    "lat": -16.399165,
    "lng": -71.537738,
    "name": "ag. arequipa centro",
    "department": "arequipa",
    "province": "arequipa",
    "district": "arequipa",
    "address": "calle la merced n° 101-103",
    "customerschedule": "",
    "phones": "(054)-605101 / 054-605102 / 054-605103"
  },
  {
    "lat": -12.050569,
    "lng": -77.087159,
    "name": "ag. colonial",
    "department": "callao",
    "province": "callao",
    "district": "carmen de la legua reynoso",
    "address": "calle omega 157 - 161",
    "customerschedule": "",
    "phones": "(01) 612-4516 / 612-4517 / 612-4518 / 612-4519 / 612-4520"
  },
  {
    "lat": -6.772992,
    "lng": -79.838387,
    "name": "ag. chiclayo",
    "department": "lambayeque",
    "province": "chiclayo",
    "district": "chiclayo",
    "address": "av. balta n° 599, edif. piso/ref (mz. 147-lote 10) (mz. 147-lote 9)",
    "customerschedule": "",
    "phones": "(074)-605801 / 074-605802 / 074-605803 / 074-605804 / 074-605805 / 074-605806 / 074-605807"
  },
  {
    "lat": -5.203741,
    "lng": -80.621538,
    "name": "ag. piura",
    "department": "piura",
    "province": "piura",
    "district": "piura",
    "address": "calle libertad n° 685",
    "customerschedule": "",
    "phones": "(073)-285271 / 073-285272 / 073-285273 / 073-285274 / 073-285275 / 073-285276 / 073-285277 / 073-285278 / 073-285279"
  },
  {
    "lat": -8.110715,
    "lng": -79.026278,
    "name": "ag. trujillo centro",
    "department": "la libertad",
    "province": "trujillo",
    "district": "trujillo",
    "address": "jr.gamarra 572-574-576-578",
    "customerschedule": "",
    "phones": "(044) 605602 / 044 605607 / 044 605603 / 044 605604"
  },
  {
    "lat": -12.056927,
    "lng": -76.970667,
    "name": "ag. santa anita",
    "department": "lima",
    "province": "lima",
    "district": "santa anita",
    "address": "carretera central 193 - local 3",
    "customerschedule": "",
    "phones": "(01) 612-4618  /  612-4617"
  },
  {
    "lat": -12.128605,
    "lng": -76.977698,
    "name": "ag.prosegur",
    "department": "lima",
    "province": "lima",
    "district": "santiago de surco",
    "address": "av. moro solar nº 1030 oficina 9 urb. santa teresa de las gardenas",
    "customerschedule": "24 horas",
    "phones": ""
  },
  {
    "lat": -12.097801,
    "lng": -77.055965,
    "name": "ag. salaverry",
    "department": "lima",
    "province": "lima",
    "district": "magdalena del mar",
    "address": "av. salaverry nº 3090",
    "customerschedule": "24 horas",
    "phones": ""
  },
  {
    "lat": -12.092687,
    "lng": -77.024272,
    "name": "ag. begonias",
    "department": "lima",
    "province": "lima",
    "district": "san isidro",
    "address": "calle las begonias 459 - 461",
    "customerschedule": "24 horas",
    "phones": ""
  },
  {
    "lat": -12.111365,
    "lng": -76.990364,
    "name": "ag. primavera",
    "department": "lima",
    "province": "lima",
    "district": "santiago de surco",
    "address": "av. primavera n° 356 urb. chacarilla del estanque",
    "customerschedule": "24 horas",
    "phones": ""
  },
  {
    "lat": -11.991343,
    "lng": -77.070411,
    "name": "ag. los olivos",
    "department": "lima",
    "province": "lima",
    "district": "los olivos",
    "address": "av. carlos yzaguirre n° 797 urb. mercurio",
    "customerschedule": "24 horas",
    "phones": ""
  },
  {
    "lat": -11.99382,
    "lng": -77.059822,
    "name": "ag. mega plaza",
    "department": "lima",
    "province": "lima",
    "district": "independencia",
    "address": "av. parque industrial n° 3575 centro comercial mega plaza tienda 61 - 62",
    "customerschedule": "lunes a domingo de 9:00 am -11:00 pm",
    "phones": ""
  },
  {
    "lat": -12.077585,
    "lng": -77.085582,
    "name": "ag. la marina",
    "department": "lima",
    "province": "lima",
    "district": "san miguel",
    "address": "av. la marina 2220 urb. pando",
    "customerschedule": "24 horas",
    "phones": ""
  },
  {
    "lat": -12.094434,
    "lng": -77.035865,
    "name": "ag. basadre",
    "department": "lima",
    "province": "lima",
    "district": "san isidro",
    "address": "av. jorge basadre 358",
    "customerschedule": "24 horas",
    "phones": ""
  },
  {
    "lat": -12.051618,
    "lng": -77.025855,
    "name": "ag. capón",
    "department": "lima",
    "province": "lima",
    "district": "lima",
    "address": "jr. andahuaylas n° 743",
    "customerschedule": "24 horas",
    "phones": ""
  },
  {
    "lat": -12.127047,
    "lng": -77.029717,
    "name": "ag. larco",
    "department": "lima",
    "province": "lima",
    "district": "miraflores",
    "address": "av. larco n° 920-924",
    "customerschedule": "24 horas",
    "phones": ""
  },
  {
    "lat": -12.052006,
    "lng": -77.033912,
    "name": "ag. plaza san martín",
    "department": "lima",
    "province": "lima",
    "district": "lima",
    "address": "jr. carabaya n° 891-899",
    "customerschedule": "lunes a viernes 9:00 am - 6:00pm, sabado de 9:00 am - 1:00 pm",
    "phones": ""
  },
  {
    "lat": -12.082946,
    "lng": -76.928437,
    "name": "ag. molicentro",
    "department": "lima",
    "province": "lima",
    "district": "la molina",
    "address": "av. la molina n° 2850, cc molicentro, local b",
    "customerschedule": "24 horas",
    "phones": ""
  },
  {
    "lat": -16.390102,
    "lng": -71.547968,
    "name": "ag. cayma",
    "department": "arequipa",
    "province": "arequipa",
    "district": "cayma",
    "address": "av. trinidad y morán n° 102, urb. los sauces",
    "customerschedule": "24 horas",
    "phones": ""
  },
  {
    "lat": -16.399165,
    "lng": -71.537738,
    "name": "ag. arequipa centro",
    "department": "arequipa",
    "province": "arequipa",
    "district": "arequipa",
    "address": "calle la merced n° 101-103",
    "customerschedule": "24 horas",
    "phones": ""
  },
  {
    "lat": -12.050569,
    "lng": -77.087159,
    "name": "ag. colonial",
    "department": "callao",
    "province": "callao",
    "district": "carmen de la legua reynoso",
    "address": "calle omega 157 - 161",
    "customerschedule": "24 horas",
    "phones": ""
  },
  {
    "lat": -6.772992,
    "lng": -79.838387,
    "name": "ag. chiclayo",
    "department": "lambayeque",
    "province": "chiclayo",
    "district": "chiclayo",
    "address": "av. balta n° 599, edif. piso/ref (mz. 147-lote 10) (mz. 147-lote 9)",
    "customerschedule": "24 horas",
    "phones": ""
  },
  {
    "lat": -5.203741,
    "lng": -80.621538,
    "name": "ag. piura",
    "department": "piura",
    "province": "piura",
    "district": "piura",
    "address": "calle libertad n° 685",
    "customerschedule": "24 horas",
    "phones": ""
  },
  {
    "lat": -8.110715,
    "lng": -79.026278,
    "name": "ag. trujillo centro",
    "department": "la libertad",
    "province": "trujillo",
    "district": "trujillo",
    "address": "jr.gamarra 572-574-576-578",
    "customerschedule": "24 horas",
    "phones": ""
  },
  {
    "lat": -12.094112,
    "lng": -77.0267,
    "name": "staff banco gnb - edificio capital",
    "department": "lima",
    "province": "lima",
    "district": "san isidro",
    "address": "av. rivera navarrete 501 - piso 17",
    "customerschedule": "24 horas",
    "phones": ""
  },
  {
    "lat": -12.056927,
    "lng": -76.970667,
    "name": "ag. santa anita",
    "department": "lima",
    "province": "lima",
    "district": "santa anita",
    "address": "carretera central 193 - local 3",
    "customerschedule": "",
    "phones": ""
  }
]