[
  {
    "latitude": -12.128605,
    "longitude": -76.977698,
    "name": "AG.PROSEGUR",
    "department": "LIMA",
    "province": "LIMA",
    "district": "SANTIAGO DE SURCO",
    "address": "AV. MORO SOLAR #1030 OFICINA 9 URB. SANTA TERESA DE LAS GARDENAS",
    "customerSchedule": "24 HORAS",
    "phones": "(01) 612-4507 / 612-4508"
  },
  {
    "latitude": -12.092687,
    "longitude": -77.024272,
    "name": "AG. BEGONIAS",
    "department": "LIMA",
    "province": "LIMA",
    "district": "SAN ISIDRO",
    "address": "CALLE LAS BEGONIAS 459 - 461",
    "customerSchedule": "24 HORAS",
    "phones": "(01) 612-4521 / 612-4522 / 612-4523 / 612-4524 / 612-4525 / 612-4526"
  },
  {
    "latitude": -12.111365,
    "longitude": -76.990364,
    "name": "AG. PRIMAVERA",
    "department": "LIMA",
    "province": "LIMA",
    "district": "SANTIAGO DE SURCO",
    "address": "AV. PRIMAVERA #356 URB. CHACARILLA DEL ESTANQUE",
    "customerSchedule": "24 HORAS",
    "phones": "(01) 612-4540 / 612-4534 / 612-4535 / 612-4536 / 612-4538 / 612-4539"
  },
  {
    "latitude": -11.991343,
    "longitude": -77.070411,
    "name": "AG. LOS OLIVOS",
    "department": "LIMA",
    "province": "LIMA",
    "district": "LOS OLIVOS",
    "address": "AV. CARLOS YZAGUIRRE #797 URB. MERCURIO",
    "customerSchedule": "24 HORAS",
    "phones": "(01) 612-4555 / 612-4548 / 612-4551 / 612-4550 / 612-4552"
  },
  {
    "latitude": -11.99382,
    "longitude": -77.059822,
    "name": "AG. MEGA PLAZA",
    "department": "LIMA",
    "province": "LIMA",
    "district": "INDEPENDENCIA",
    "address": "AV.INDUSTRIAL 3515 - 3517, INTERIORES 61 Y 62, PANAMERICANA NORTE MZ F SUB LOTE C, VALLE DE LA PIEDRA LIZA CC MEGAPLAZA",
    "customerSchedule": "LUNES A DOMINGO DE 9:00 AM - 11:00 PM",
    "phones": "(01) 612-4558 / 612-4557 / 612-4560"
  },
  {
    "latitude": -12.077585,
    "longitude": -77.085582,
    "name": "AG. LA MARINA",
    "department": "LIMA",
    "province": "LIMA",
    "district": "SAN MIGUEL",
    "address": "AV LA MARINA 2220 MZ C 1-3 LT 2 URB PANDO",
    "customerSchedule": "",
    "phones": "(01) 612-4547 / 612-4541 / 612-4542 / 612-4543 / 612-4544 / 612-4545 "
  },
  {
    "latitude": -12.094434,
    "longitude": -77.035865,
    "name": "AG. BASADRE",
    "department": "LIMA",
    "province": "LIMA",
    "district": "SAN ISIDRO",
    "address": "AV. JORGE BASADRE 358",
    "customerSchedule": "24 HORAS",
    "phones": "(01) 612-4582 / 612-4583 / 612-4584"
  },
  {
    "latitude": -12.051618,
    "longitude": -77.025855,
    "name": "AG. CAPÓN",
    "department": "LIMA",
    "province": "LIMA",
    "district": "LIMA",
    "address": "JR. ANDAHUAYLAS #743",
    "customerSchedule": "24 HORAS",
    "phones": "(01) 612-4588 / 612-4589 / 612-4590 / 612-4591"
  },
  {
    "latitude": -12.127047,
    "longitude": -77.029717,
    "name": "AG. LARCO",
    "department": "LIMA",
    "province": "LIMA",
    "district": "MIRAFLORES",
    "address": "AV. LARCO #920-924",
    "customerSchedule": "24 HORAS",
    "phones": "(01) 612-4592 / 612-4593 / 612-4595 / 612-4596 / 612-4597 / 612-4598 / 612-4599 "
  },
  {
    "latitude": -12.052006,
    "longitude": -77.033912,
    "name": "AG. PLAZA SAN MARTÍN",
    "department": "LIMA",
    "province": "LIMA",
    "district": "LIMA",
    "address": "JR. CARABAYA #891-899",
    "customerSchedule": "LUNES A VIERNES 9:00 AM - 6:00PM, SABADO DE 9:00 AM - 1:00 PM",
    "phones": "(01) 612-4601 / 612-4602 / 612-4603 / 612-4604 / 612-4605"
  },
  {
    "latitude": -12.082946,
    "longitude": -76.928437,
    "name": "AG. MOLICENTRO",
    "department": "LIMA",
    "province": "LIMA",
    "district": "LA MOLINA",
    "address": "AV. LA UNIVERSIDAD 2850, LOCAL B C.C. MOLICENTRO",
    "customerSchedule": "",
    "phones": "(01) 612-4606 / 612-4607 / 612-4608 / 612-4609"
  },
  {
    "latitude": -16.390102,
    "longitude": -71.547968,
    "name": "AG. CAYMA",
    "department": "AREQUIPA",
    "province": "AREQUIPA",
    "district": "CAYMA",
    "address": "AV. TRINIDAD Y MORÁN #102, URB. LOS SAUCES",
    "customerSchedule": "24 HORAS",
    "phones": "(054)-382561 / 054-382562 / 054-382563 / 054-382564 / 054-382565 / 054-382566 / 054-382567 / 054-382568"
  },
  {
    "latitude": -16.399165,
    "longitude": -71.537738,
    "name": "AG. AREQUIPA CENTRO",
    "department": "AREQUIPA",
    "province": "AREQUIPA",
    "district": "AREQUIPA",
    "address": "CALLE LA MERCED #101-103",
    "customerSchedule": "24 HORAS",
    "phones": "(054)-605101 / 054-605102 / 054-605103"
  },
  {
    "latitude": -12.050569,
    "longitude": -77.087159,
    "name": "AG. COLONIAL",
    "department": "CALLAO",
    "province": "CALLAO",
    "district": "CARMEN DE LA LEGUA REYNOSO",
    "address": "CALLE OMEGA 157 - 161",
    "customerSchedule": "24 HORAS",
    "phones": "(01) 612-4516 / 612-4517 / 612-4518 / 612-4519 / 612-4520"
  },
  {
    "latitude": -6.772992,
    "longitude": -79.838387,
    "name": "AG. CHICLAYO",
    "department": "LAMBAYEQUE",
    "province": "CHICLAYO",
    "district": "CHICLAYO",
    "address": "AV. BALTA #599, EDIF. PISO/REF (MZ. 147-LOTE 10) (MZ. 147-LOTE 9)",
    "customerSchedule": "24 HORAS",
    "phones": "(074)-605801 / 074-605802 / 074-605803 / 074-605804 / 074-605805 / 074-605806 / 074-605807"
  },
  {
    "latitude": -5.203741,
    "longitude": -80.621538,
    "name": "AG. PIURA",
    "department": "PIURA",
    "province": "PIURA",
    "district": "PIURA",
    "address": "CALLE LIBERTAD #685",
    "customerSchedule": "24 HORAS",
    "phones": "(073)-285271 / 073-285272 / 073-285273 / 073-285274 / 073-285275 / 073-285276 / 073-285277 / 073-285278 / 073-285279"
  },
  {
    "latitude": -8.110715,
    "longitude": -79.026278,
    "name": "AG. TRUJILLO CENTRO",
    "department": "LA LIBERTAD",
    "province": "TRUJILLO",
    "district": "TRUJILLO",
    "address": "JR.GAMARRA 572-574-576-578",
    "customerSchedule": "24 HORAS",
    "phones": "(044) 605602 / 044 605607 / 044 605603 / 044 605604"
  },
  {
    "latitude": -12.056927,
    "longitude": -76.970667,
    "name": "AG. SANTA ANITA",
    "department": "LIMA",
    "province": "LIMA",
    "district": "SANTA ANITA",
    "address": "CARRETERA CENTRAL 193 - LOCAL 3",
    "customerSchedule": "",
    "phones": "(01) 612-4618  /  612-4617"
  },
  {
    "latitude": -12.097801,
    "longitude": -77.055965,
    "name": "AG. SALAVERRY",
    "department": "LIMA",
    "province": "LIMA",
    "district": "MAGDALENA DEL MAR",
    "address": "AV. SALAVERRY #3090",
    "customerSchedule": "24 HORAS",
    "phones": ""
  },
  {
    "latitude": -12.094112,
    "longitude": -77.0267,
    "name": "STAFF BANCO GNB - EDIFICIO CAPITAL",
    "department": "LIMA",
    "province": "LIMA",
    "district": "SAN ISIDRO",
    "address": "AV. RIVERA NAVARRETE 501 - PISO 17",
    "customerSchedule": "24 HORAS",
    "phones": ""
  }
]