[
  {
    "type": "AGENCIA",
    "name": "AG.PROSEGUR",
    "department": "LIMA",
    "province": "LIMA",
    "district": "SANTIAGO DE SURCO",
    "address": "AV. MORO SOLAR Nº 1030 OFICINA 9 URB. SANTA TERESA DE LAS GARDENAS",
    "phones": "(01) 612-4507 / 612-4508",
    "latitude": -12.128605,
    "longitude": -76.977698
  },
  {
    "type": "AGENCIA",
    "name": "AG. SALAVERRY",
    "department": "LIMA",
    "province": "LIMA",
    "district": "MAGDALENA DEL MAR",
    "address": "AV. SALAVERRY Nº 3090",
    "phones": "(01)612-4511 / 612-4512 / 612-4514",
    "latitude": -12.097801,
    "longitude": -77.055965
  },
  {
    "type": "AGENCIA",
    "name": "AG. BEGONIAS",
    "department": "LIMA",
    "province": "LIMA",
    "district": "SAN ISIDRO",
    "address": "CALLE LAS BEGONIAS 459 - 461",
    "phones": "(01) 612-4521 / 612-4522 / 612-4523 / 612-4524 / 612-4525 / 612-4526",
    "latitude": -12.092687,
    "longitude": -77.024272
  },
  {
    "type": "AGENCIA",
    "name": "AG. PRIMAVERA",
    "department": "LIMA",
    "province": "LIMA",
    "district": "SANTIAGO DE SURCO",
    "address": "AV. PRIMAVERA N° 356 URB. CHACARILLA DEL ESTANQUE",
    "phones": "(01) 612-4540 / 612-4534 / 612-4535 / 612-4536 / 612-4538 / 612-4539",
    "latitude": -12.111365,
    "longitude": -76.990364
  },
  {
    "type": "AGENCIA",
    "name": "AG. LOS OLIVOS",
    "department": "LIMA",
    "province": "LIMA",
    "district": "LOS OLIVOS",
    "address": "AV. CARLOS YZAGUIRRE N° 797 URB. MERCURIO",
    "phones": "(01) 612-4555 / 612-4548 / 612-4551 / 612-4550 / 612-4552",
    "latitude": -11.991343,
    "longitude": -77.070411
  },
  {
    "type": "AGENCIA",
    "name": "AG. MEGA PLAZA",
    "department": "LIMA",
    "province": "LIMA",
    "district": "INDEPENDENCIA",
    "address": "AV.INDUSTRIAL 3515 - 3517, INTERIORES 61 Y 62, PANAMERICANA NORTE MZ F SUB LOTE C, VALLE DE LA PIEDRA LIZA CC MEGAPLAZA",
    "phones": "(01) 612-4558 / 612-4557 / 612-4560",
    "latitude": -11.99382,
    "longitude": -77.059822
  },
  {
    "type": "AGENCIA",
    "name": "AG. LA MARINA",
    "department": "LIMA",
    "province": "LIMA",
    "district": "SAN MIGUEL",
    "address": "AV LA MARINA 2220 MZ C 1-3 LT 2 URB PANDO",
    "phones": "(01) 612-4547 / 612-4541 / 612-4542 / 612-4543 / 612-4544 / 612-4545 ",
    "latitude": -12.077585,
    "longitude": -77.085582
  },
  {
    "type": "AGENCIA",
    "name": "AG. BASADRE",
    "department": "LIMA",
    "province": "LIMA",
    "district": "SAN ISIDRO",
    "address": "AV. JORGE BASADRE 358",
    "phones": "(01) 612-4582 / 612-4583 / 612-4584",
    "latitude": -12.094434,
    "longitude": -77.035865
  },
  {
    "type": "AGENCIA",
    "name": "AG. CAPÓN",
    "department": "LIMA",
    "province": "LIMA",
    "district": "LIMA",
    "address": "JR. ANDAHUAYLAS N° 743",
    "phones": "(01) 612-4588 / 612-4589 / 612-4590 / 612-4591",
    "latitude": -12.051618,
    "longitude": -77.025855
  },
  {
    "type": "AGENCIA",
    "name": "AG. LARCO",
    "department": "LIMA",
    "province": "LIMA",
    "district": "MIRAFLORES",
    "address": "AV. LARCO N° 920-924",
    "phones": "(01) 612-4592 / 612-4593 / 612-4595 / 612-4596 / 612-4597 / 612-4598 / 612-4599 ",
    "latitude": -12.127047,
    "longitude": -77.029717
  },
  {
    "type": "AGENCIA",
    "name": "AG. PLAZA SAN MARTÍN",
    "department": "LIMA",
    "province": "LIMA",
    "district": "LIMA",
    "address": "JR. CARABAYA N° 891-899",
    "phones": "(01) 612-4601 / 612-4602 / 612-4603 / 612-4604 / 612-4605",
    "latitude": -12.052006,
    "longitude": -77.033912
  },
  {
    "type": "AGENCIA",
    "name": "AG. MOLICENTRO",
    "department": "LIMA",
    "province": "LIMA",
    "district": "LA MOLINA",
    "address": "AV. LA UNIVERSIDAD 2850, LOCAL B C.C. MOLICENTRO",
    "phones": "(01) 612-4606 / 612-4607 / 612-4608 / 612-4609",
    "latitude": -12.082946,
    "longitude": -76.928437
  },
  {
    "type": "AGENCIA",
    "name": "AG. CAYMA",
    "department": "AREQUIPA",
    "province": "AREQUIPA",
    "district": "CAYMA",
    "address": "AV. TRINIDAD Y MORÁN N° 102, URB. LOS SAUCES",
    "phones": "(054)-382561 / 054-382562 / 054-382563 / 054-382564 / 054-382565 / 054-382566 / 054-382567 / 054-382568",
    "latitude": -16.390102,
    "longitude": -71.547968
  },
  {
    "type": "AGENCIA",
    "name": "AG. AREQUIPA CENTRO",
    "department": "AREQUIPA",
    "province": "AREQUIPA",
    "district": "AREQUIPA",
    "address": "CALLE LA MERCED N° 101-103",
    "phones": "(054)-605101 / 054-605102 / 054-605103",
    "latitude": -16.399165,
    "longitude": -71.537738
  },
  {
    "type": "AGENCIA",
    "name": "AG. COLONIAL",
    "department": "CALLAO",
    "province": "CALLAO",
    "district": "CARMEN DE LA LEGUA REYNOSO",
    "address": "CALLE OMEGA 157 - 161",
    "phones": "(01) 612-4516 / 612-4517 / 612-4518 / 612-4519 / 612-4520",
    "latitude": -12.050569,
    "longitude": -77.087159
  },
  {
    "type": "AGENCIA",
    "name": "AG. CHICLAYO",
    "department": "LAMBAYEQUE",
    "province": "CHICLAYO",
    "district": "CHICLAYO",
    "address": "AV. BALTA N° 599, EDIF. PISO/REF (MZ. 147-LOTE 10) (MZ. 147-LOTE 9)",
    "phones": "(074)-605801 / 074-605802 / 074-605803 / 074-605804 / 074-605805 / 074-605806 / 074-605807",
    "latitude": -6.772992,
    "longitude": -79.838387
  },
  {
    "type": "AGENCIA",
    "name": "AG. PIURA",
    "department": "PIURA",
    "province": "PIURA",
    "district": "PIURA",
    "address": "CALLE LIBERTAD N° 685",
    "phones": "(073)-285271 / 073-285272 / 073-285273 / 073-285274 / 073-285275 / 073-285276 / 073-285277 / 073-285278 / 073-285279",
    "latitude": -5.203741,
    "longitude": -80.621538
  },
  {
    "type": "AGENCIA",
    "name": "AG. TRUJILLO CENTRO",
    "department": "LA LIBERTAD",
    "province": "TRUJILLO",
    "district": "TRUJILLO",
    "address": "JR.GAMARRA 572-574-576-578",
    "phones": "(044) 605602 / 044 605607 / 044 605603 / 044 605604",
    "latitude": -8.110715,
    "longitude": -79.026278
  },
  {
    "type": "AGENCIA",
    "name": "AG. SANTA ANITA",
    "department": "LIMA",
    "province": "LIMA",
    "district": "SANTA ANITA",
    "address": "CARRETERA CENTRAL 193 - LOCAL 3",
    "phones": "(01) 612-4618  /  612-4617",
    "latitude": -12.056927,
    "longitude": -76.970667
  },
  {
    "type": "CAJERO",
    "name": "AG.PROSEGUR",
    "department": "LIMA",
    "province": "LIMA",
    "district": "SANTIAGO DE SURCO",
    "address": "AV. MORO SOLAR Nº 1030 OFICINA 9 URB. SANTA TERESA DE LAS GARDENAS",
    "phones": "",
    "latitude": -12.128605,
    "longitude": -76.977698
  },
  {
    "type": "CAJERO",
    "name": "AG. SALAVERRY",
    "department": "LIMA",
    "province": "LIMA",
    "district": "MAGDALENA DEL MAR",
    "address": "AV. SALAVERRY Nº 3090",
    "phones": "",
    "latitude": -12.097801,
    "longitude": -77.055965
  },
  {
    "type": "CAJERO",
    "name": "AG. BEGONIAS",
    "department": "LIMA",
    "province": "LIMA",
    "district": "SAN ISIDRO",
    "address": "CALLE LAS BEGONIAS 459 - 461",
    "phones": "",
    "latitude": -12.092687,
    "longitude": -77.024272
  },
  {
    "type": "CAJERO",
    "name": "AG. PRIMAVERA",
    "department": "LIMA",
    "province": "LIMA",
    "district": "SANTIAGO DE SURCO",
    "address": "AV. PRIMAVERA N° 356 URB. CHACARILLA DEL ESTANQUE",
    "phones": "",
    "latitude": -12.111365,
    "longitude": -76.990364
  },
  {
    "type": "CAJERO",
    "name": "AG. LOS OLIVOS",
    "department": "LIMA",
    "province": "LIMA",
    "district": "LOS OLIVOS",
    "address": "AV. CARLOS YZAGUIRRE N° 797 URB. MERCURIO",
    "phones": "",
    "latitude": -11.991343,
    "longitude": -77.070411
  },
  {
    "type": "CAJERO",
    "name": "AG. MEGA PLAZA",
    "department": "LIMA",
    "province": "LIMA",
    "district": "INDEPENDENCIA",
    "address": "AV. PARQUE INDUSTRIAL N° 3575 CENTRO COMERCIAL MEGA PLAZA TIENDA 61 - 62",
    "phones": "",
    "latitude": -11.99382,
    "longitude": -77.059822
  },
  {
    "type": "CAJERO",
    "name": "AG. LA MARINA",
    "department": "LIMA",
    "province": "LIMA",
    "district": "SAN MIGUEL",
    "address": "AV. LA MARINA 2220 URB. PANDO",
    "phones": "",
    "latitude": -12.077585,
    "longitude": -77.085582
  },
  {
    "type": "CAJERO",
    "name": "AG. BASADRE",
    "department": "LIMA",
    "province": "LIMA",
    "district": "SAN ISIDRO",
    "address": "AV. JORGE BASADRE 358",
    "phones": "",
    "latitude": -12.094434,
    "longitude": -77.035865
  },
  {
    "type": "CAJERO",
    "name": "AG. CAPÓN",
    "department": "LIMA",
    "province": "LIMA",
    "district": "LIMA",
    "address": "JR. ANDAHUAYLAS N° 743",
    "phones": "",
    "latitude": -12.051618,
    "longitude": -77.025855
  },
  {
    "type": "CAJERO",
    "name": "AG. LARCO",
    "department": "LIMA",
    "province": "LIMA",
    "district": "MIRAFLORES",
    "address": "AV. LARCO N° 920-924",
    "phones": "",
    "latitude": -12.127047,
    "longitude": -77.029717
  },
  {
    "type": "CAJERO",
    "name": "AG. PLAZA SAN MARTÍN",
    "department": "LIMA",
    "province": "LIMA",
    "district": "LIMA",
    "address": "JR. CARABAYA N° 891-899",
    "phones": "",
    "latitude": -12.052006,
    "longitude": -77.033912
  },
  {
    "type": "CAJERO",
    "name": "AG. MOLICENTRO",
    "department": "LIMA",
    "province": "LIMA",
    "district": "LA MOLINA",
    "address": "AV. LA MOLINA N° 2850, CC MOLICENTRO, LOCAL B",
    "phones": "",
    "latitude": -12.082946,
    "longitude": -76.928437
  },
  {
    "type": "CAJERO",
    "name": "AG. CAYMA",
    "department": "AREQUIPA",
    "province": "AREQUIPA",
    "district": "CAYMA",
    "address": "AV. TRINIDAD Y MORÁN N° 102, URB. LOS SAUCES",
    "phones": "",
    "latitude": -16.390102,
    "longitude": -71.547968
  },
  {
    "type": "CAJERO",
    "name": "AG. AREQUIPA CENTRO",
    "department": "AREQUIPA",
    "province": "AREQUIPA",
    "district": "AREQUIPA",
    "address": "CALLE LA MERCED N° 101-103",
    "phones": "",
    "latitude": -16.399165,
    "longitude": -71.537738
  },
  {
    "type": "CAJERO",
    "name": "AG. COLONIAL",
    "department": "CALLAO",
    "province": "CALLAO",
    "district": "CARMEN DE LA LEGUA REYNOSO",
    "address": "CALLE OMEGA 157 - 161",
    "phones": "",
    "latitude": -12.050569,
    "longitude": -77.087159
  },
  {
    "type": "CAJERO",
    "name": "AG. CHICLAYO",
    "department": "LAMBAYEQUE",
    "province": "CHICLAYO",
    "district": "CHICLAYO",
    "address": "AV. BALTA N° 599, EDIF. PISO/REF (MZ. 147-LOTE 10) (MZ. 147-LOTE 9)",
    "phones": "",
    "latitude": -6.772992,
    "longitude": -79.838387
  },
  {
    "type": "CAJERO",
    "name": "AG. PIURA",
    "department": "PIURA",
    "province": "PIURA",
    "district": "PIURA",
    "address": "CALLE LIBERTAD N° 685",
    "phones": "",
    "latitude": -5.203741,
    "longitude": -80.621538
  },
  {
    "type": "CAJERO",
    "name": "AG. TRUJILLO CENTRO",
    "department": "LA LIBERTAD",
    "province": "TRUJILLO",
    "district": "TRUJILLO",
    "address": "JR.GAMARRA 572-574-576-578",
    "phones": "",
    "latitude": -8.110715,
    "longitude": -79.026278
  },
  {
    "type": "CAJERO",
    "name": "STAFF BANCO GNB - EDIFICIO CAPITAL",
    "department": "LIMA",
    "province": "LIMA",
    "district": "SAN ISIDRO",
    "address": "AV. RIVERA NAVARRETE 501 - PISO 17",
    "phones": "",
    "latitude": -12.094112,
    "longitude": -77.0267
  },
  {
    "type": "CAJERO",
    "name": "AG. SANTA ANITA",
    "department": "LIMA",
    "province": "LIMA",
    "district": "SANTA ANITA",
    "address": "CARRETERA CENTRAL 193 - LOCAL 3",
    "phones": "",
    "latitude": -12.056927,
    "longitude": -76.970667
  },
  {
    "type": "CAJERO-UNICARD",
    "name": "RED UNICARD",
    "department": "LIMA",
    "province": "LIMA",
    "district": "SAN ISIDRO",
    "address": "AV. CANAVAL Y MOREYRA 498",
    "phones": "",
    "latitude": -12.097004,
    "longitude": -77.021241
  },
  {
    "type": "CAJERO-UNICARD",
    "name": "RED UNICARD",
    "department": "LIMA",
    "province": "LIMA",
    "district": "SANTIAGO DE SURCO",
    "address": "AV. CAMINOS DEL INCA 331 (C.C. STA MARÍA TIENDAS 2 Y 3)",
    "phones": " ",
    "latitude": -12.11468,
    "longitude": -76.991522
  },
  {
    "type": "CAJERO-UNICARD",
    "name": "RED UNICARD",
    "department": "LIMA",
    "province": "LIMA",
    "district": "MIRAFLORES",
    "address": "AV. COMANDANTE ESPINAR 677",
    "phones": "",
    "latitude": -12.112414,
    "longitude": -77.036884
  },
  {
    "type": "CAJERO-UNICARD",
    "name": "RED UNICARD",
    "department": "LIMA",
    "province": "LIMA",
    "district": "SAN MIGUEL",
    "address": "ESQ. AV. LA MARINA Y AV. DINTILHAC",
    "phones": " ",
    "latitude": -12.078309,
    "longitude": -77.085443
  },
  {
    "type": "CAJERO-UNICARD",
    "name": "RED UNICARD",
    "department": "LIMA",
    "province": "LIMA",
    "district": "LA MOLINA",
    "address": "AV. RAÚL FERRERO 1015",
    "phones": "",
    "latitude": -12.089493,
    "longitude": -76.948736
  },
  {
    "type": "CAJERO-UNICARD",
    "name": "RED UNICARD",
    "department": "LIMA",
    "province": "LIMA",
    "district": "MIRAFLORES",
    "address": "AV. BENAVIDES 1085",
    "phones": "",
    "latitude": -12.125852,
    "longitude": -77.02019
  },
  {
    "type": "CAJERO-UNICARD",
    "name": "RED UNICARD",
    "department": "LIMA",
    "province": "LIMA",
    "district": "SAN MIGUEL",
    "address": "ESQ. AV. LA MARINA Y AV. DINTILHAC",
    "phones": "",
    "latitude": -12.078309,
    "longitude": -77.085443
  },
  {
    "type": "CAJERO-UNICARD",
    "name": "RED UNICARD",
    "department": "CUSCO",
    "province": "CUSCO",
    "district": "CERCADO",
    "address": "CASA MATRIZ - CALLE GARCILAZO 256 - TIENDA 260",
    "phones": "",
    "latitude": -13.522334,
    "longitude": -71.971242
  },
  {
    "type": "CAJERO-UNICARD",
    "name": "RED UNICARD",
    "department": "LIMA",
    "province": "LIMA",
    "district": "SAN ISIDRO",
    "address": "CALLE LAS BEGONIAS 453 - 457",
    "phones": "",
    "latitude": -12.091502,
    "longitude": -77.024336
  },
  {
    "type": "CAJERO-UNICARD",
    "name": "RED UNICARD",
    "department": "LIMA",
    "province": "LIMA",
    "district": "SAN BORJA",
    "address": "AV. SAN BORJA NORTE 996",
    "phones": "",
    "latitude": -12.093154,
    "longitude": -76.996393
  },
  {
    "type": "CAJERO-UNICARD",
    "name": "RED UNICARD",
    "department": "LIMA",
    "province": "LIMA",
    "district": "CERCADO",
    "address": "JR. ANTONIO MIRO QUESADA 268",
    "phones": "",
    "latitude": -12.048879,
    "longitude": -77.031262
  },
  {
    "type": "CAJERO-UNICARD",
    "name": "RED UNICARD",
    "department": "LIMA",
    "province": "LIMA",
    "district": "SAN ISIDRO",
    "address": "AV. DOS DE MAYO 1547",
    "phones": "",
    "latitude": -12.09243,
    "longitude": -77.04698
  },
  {
    "type": "CAJERO-UNICARD",
    "name": "RED UNICARD",
    "department": "LIMA",
    "province": "LIMA",
    "district": "MIRAFLORES",
    "address": "AV. JOSÉ PARDO 127",
    "phones": "",
    "latitude": -12.119243,
    "longitude": -77.029835
  },
  {
    "type": "CAJERO-UNICARD",
    "name": "RED UNICARD",
    "department": "LIMA",
    "province": "LIMA",
    "district": "SANTIAGO DE SURCO",
    "address": "JR. EL POLO 763",
    "phones": "",
    "latitude": -12.099669,
    "longitude": -76.971331
  },
  {
    "type": "CAJERO-UNICARD",
    "name": "RED UNICARD",
    "department": "LIMA",
    "province": "LIMA",
    "district": "MIRAFLORES",
    "address": "PROLONGACIÓN ARENALES 575",
    "phones": "",
    "latitude": -12.105071,
    "longitude": -77.032388
  },
  {
    "type": "CAJERO-UNICARD",
    "name": "RED UNICARD",
    "department": "LIMA",
    "province": "LIMA",
    "district": "CALLAO",
    "address": "AV. ELMER FAUCETT 2121",
    "phones": "",
    "latitude": -12.055175,
    "longitude": -77.097781
  },
  {
    "type": "CAJERO-UNICARD",
    "name": "RED UNICARD",
    "department": "LA LIBERTAD",
    "province": "TRUJILLO",
    "district": "TRUJILLO",
    "address": "CALLE JUNÍN 468",
    "phones": "",
    "latitude": -8.108549,
    "longitude": -79.026257
  },
  {
    "type": "CAJERO-UNICARD",
    "name": "RED UNICARD",
    "department": "AREQUIPA",
    "province": "AREQUIPA",
    "district": "CAYMA",
    "address": "AV. CAYMA 612",
    "phones": "",
    "latitude": -16.388249,
    "longitude": -71.54726
  },
  {
    "type": "CAJERO-UNICARD",
    "name": "RED UNICARD",
    "department": "LIMA",
    "province": "LIMA",
    "district": "SANTIAGO DE SURCO",
    "address": "C.C. JOCKEY PLAZA, TIENDA 103 A-8 NIVEL 1",
    "phones": "",
    "latitude": -12.086482,
    "longitude": -76.976491
  },
  {
    "type": "CAJERO-UNICARD",
    "name": "RED UNICARD",
    "department": "LIMA",
    "province": "LIMA",
    "district": "MIRAFLORES",
    "address": "C.C AURORA TIENDA 146",
    "phones": "",
    "latitude": -12.122495,
    "longitude": -77.012208
  },
  {
    "type": "CAJERO-UNICARD",
    "name": "RED UNICARD",
    "department": "LIMA",
    "province": "LIMA",
    "district": "MIRAFLORES",
    "address": "AV. JOSÉ PARDO 272",
    "phones": "",
    "latitude": -12.119222,
    "longitude": -77.03079
  },
  {
    "type": "CAJERO-UNICARD",
    "name": "RED UNICARD",
    "department": "AREQUIPA",
    "province": "AREQUIPA",
    "district": "YANAHUARA",
    "address": "AV. EJÉRCITO 711",
    "phones": "",
    "latitude": -16.389726,
    "longitude": -71.547346
  },
  {
    "type": "CAJERO-UNICARD",
    "name": "RED UNICARD",
    "department": "LIMA",
    "province": "LIMA",
    "district": "SANTA ANITA",
    "address": "CALLE LAS ALONDRAS 269",
    "phones": "",
    "latitude": -12.056161,
    "longitude": -76.968391
  },
  {
    "type": "CAJERO-UNICARD",
    "name": "RED UNICARD",
    "department": "LIMA",
    "province": "LIMA",
    "district": "SAN MIGUEL",
    "address": "AV. ELMER FAUCETT 525",
    "phones": "",
    "latitude": -12.065069,
    "longitude": -77.09718
  },
  {
    "type": "CAJERO-UNICARD",
    "name": "RED UNICARD",
    "department": "LIMA",
    "province": "LIMA",
    "district": "SANTIAGO DE SURCO",
    "address": "CALLE MONTEREY 188, TIENDA 11 - 12",
    "phones": "",
    "latitude": -12.11275,
    "longitude": -76.991962
  },
  {
    "type": "CAJERO-UNICARD",
    "name": "RED UNICARD",
    "department": "LIMA",
    "province": "LIMA",
    "district": "SAN ISIDRO",
    "address": "AV. CANAVAL Y MOREYRA 454",
    "phones": "",
    "latitude": -12.097077,
    "longitude": -77.022357
  },
  {
    "type": "CAJERO-UNICARD",
    "name": "RED UNICARD",
    "department": "LIMA",
    "province": "LIMA",
    "district": "LA MOLINA",
    "address": "CALLE LA CHALANA 152",
    "phones": "",
    "latitude": -12.078372,
    "longitude": -76.916914
  },
  {
    "type": "CAJERO-UNICARD",
    "name": "RED UNICARD",
    "department": "LIMA",
    "province": "LIMA",
    "district": "CERCADO",
    "address": "JR. LAMPA 560",
    "phones": "",
    "latitude": -12.048638,
    "longitude": -77.030371
  },
  {
    "type": "CAJERO-UNICARD",
    "name": "RED UNICARD",
    "department": "LIMA",
    "province": "LIMA",
    "district": "JESÚS MARÍA",
    "address": "AV. GENERAL GARZÓN 1299",
    "phones": "",
    "latitude": -12.07214,
    "longitude": -77.049844
  },
  {
    "type": "CAJERO-UNICARD",
    "name": "RED UNICARD",
    "department": "LIMA",
    "province": "LIMA",
    "district": "CERCADO",
    "address": "AV. ARENALES 797",
    "phones": "",
    "latitude": -12.07193,
    "longitude": -77.037485
  },
  {
    "type": "CAJERO-UNICARD",
    "name": "RED UNICARD",
    "department": "LIMA",
    "province": "LIMA",
    "district": "SAN BORJA",
    "address": "CALLE MORELLI 201",
    "phones": "",
    "latitude": -12.089954,
    "longitude": -77.004021
  },
  {
    "type": "CAJERO-UNICARD",
    "name": "RED UNICARD",
    "department": "PIURA",
    "province": "PIURA",
    "district": "PIURA",
    "address": "CALLE LIBERTAD 905",
    "phones": "",
    "latitude": -5.199788,
    "longitude": -80.620637
  },
  {
    "type": "CAJERO-UNICARD",
    "name": "RED UNICARD",
    "department": "LIMA",
    "province": "LIMA",
    "district": "VILLA EL SALVADOR",
    "address": "JR. FORJADORES CDRA3, MZ H, LT 1D, PARCELA II - PARQUE INDUSTRIAL",
    "phones": "",
    "latitude": -12.199708,
    "longitude": -76.934016
  },
  {
    "type": "CAJERO-UNICARD",
    "name": "RED UNICARD",
    "department": "LIMA",
    "province": "LIMA",
    "district": "SAN BORJA",
    "address": "AV. BOULEVAR S/N - CUARTEL GENERAL DEL EJÉRCITO",
    "phones": "",
    "latitude": -12.101599,
    "longitude": -76.988432
  },
  {
    "type": "CAJERO-UNICARD",
    "name": "RED UNICARD",
    "department": "LIMA",
    "province": "LIMA",
    "district": "CALLAO",
    "address": "AV. FAUCETT S/N - FRENTE A LA SEDE DEL GOBIERNO REGIONAL DEL CALLAO",
    "phones": "",
    "latitude": -12.019069,
    "longitude": -77.107394
  },
  {
    "type": "CAJERO-UNICARD",
    "name": "RED UNICARD",
    "department": "ICA",
    "province": "ICA",
    "district": "PISCO",
    "address": "CALLE CALLAO 172 - 176",
    "phones": "",
    "latitude": -13.710025,
    "longitude": -76.210656
  },
  {
    "type": "CAJERO-UNICARD",
    "name": "RED UNICARD",
    "department": "LIMA",
    "province": "LIMA",
    "district": "SAN BORJA",
    "address": "AV. SAN LUIS CUADRA 24 - CENTRO NAVAL",
    "phones": "",
    "latitude": -12.096983,
    "longitude": -76.995385
  },
  {
    "type": "CAJERO-UNICARD",
    "name": "RED UNICARD",
    "department": "LIMA",
    "province": "LIMA",
    "district": "CERCADO",
    "address": "CUARTEL GRAL DE LA FAP - AV. 28 DE JULIO S/N ALTURA DE LA CUADRA 4",
    "phones": "",
    "latitude": -12.065814,
    "longitude": -77.042699
  },
  {
    "type": "CAJERO-UNICARD",
    "name": "RED UNICARD",
    "department": "LIMA",
    "province": "LIMA",
    "district": "SANTIAGO DE SURCO",
    "address": "AV. JORGE CHAVEZ S/N - BASE AEREA LAS PALMAS",
    "phones": "",
    "latitude": -12.153333,
    "longitude": -77.000985
  },
  {
    "type": "CAJERO-UNICARD",
    "name": "RED UNICARD",
    "department": "LIMA",
    "province": "LIMA",
    "district": "CERCADO",
    "address": "AV. NICOLÁS DE PIÉROLA 1785",
    "phones": "",
    "latitude": -12.057478,
    "longitude": -77.025806
  },
  {
    "type": "CAJERO-UNICARD",
    "name": "RED UNICARD",
    "department": "LAMBAYEQUE",
    "province": "CHICLAYO",
    "district": "CHICLAYO",
    "address": "AV. JOSÉ BALTA 315",
    "phones": "",
    "latitude": -6.757128,
    "longitude": -79.836992
  },
  {
    "type": "CAJERO-UNICARD",
    "name": "RED UNICARD",
    "department": "LA LIBERTAD",
    "province": "TRUJILLO",
    "district": "TRUJILLO",
    "address": "JR. INDEPENDENCIA 527",
    "phones": "",
    "latitude": -8.109791,
    "longitude": -79.028134
  },
  {
    "type": "CAJERO-UNICARD",
    "name": "RED UNICARD",
    "department": "AREQUIPA",
    "province": "AREQUIPA",
    "district": "CERCADO",
    "address": "CALLE MORAL 101",
    "phones": "",
    "latitude": -16.397575,
    "longitude": -71.535255
  },
  {
    "type": "CAJERO-UNICARD",
    "name": "RED UNICARD",
    "department": "LA LIBERTAD",
    "province": "LA LIBERTAD",
    "district": "HUAMACHUCO",
    "address": "JR. SÁNCHEZ CARRIÓN 649",
    "phones": "",
    "latitude": -8.135388,
    "longitude": -79.047124
  },
  {
    "type": "CAJERO-UNICARD",
    "name": "RED UNICARD",
    "department": "LA LIBERTAD",
    "province": "TRUJILLO",
    "district": "TRUJILLO",
    "address": "JR. ESTETE 745 (MULTIAGENCIAS PROSEGUR)",
    "phones": "",
    "latitude": -8.109239,
    "longitude": -79.022115
  },
  {
    "type": "CAJERO-UNICARD",
    "name": "RED UNICARD",
    "department": "AREQUIPA",
    "province": "AREQUIPA",
    "district": "CHIVAY",
    "address": "AV. SALAVERRY MZ. Q LOTE 5",
    "phones": "",
    "latitude": -16.454648,
    "longitude": -71.529547
  },
  {
    "type": "CAJERO-UNICARD",
    "name": "RED UNICARD",
    "department": "AREQUIPA",
    "province": "AREQUIPA",
    "district": "CAYLLOMA",
    "address": "CENTRO POBLADO EL PEDREGAL MZ. H - LOTE 1, MAJES",
    "phones": "",
    "latitude": -16.370051,
    "longitude": -72.204037
  },
  {
    "type": "CAJERO-UNICARD",
    "name": "RED UNICARD",
    "department": "AREQUIPA",
    "province": "AREQUIPA",
    "district": "LA JOYA",
    "address": "PANAMERICANA KM 65",
    "phones": "",
    "latitude": -16.721371,
    "longitude": -71.859512
  },
  {
    "type": "CAJERO-UNICARD",
    "name": "RED UNICARD",
    "department": "MOQUEGUA",
    "province": "MOQUEGUA",
    "district": "CERCADO",
    "address": "JR. MOQUEGUA 828",
    "phones": "",
    "latitude": -17.193008,
    "longitude": -70.934311
  },
  {
    "type": "CAJERO-UNICARD",
    "name": "RED UNICARD",
    "department": "TACNA",
    "province": "TACNA",
    "district": "CERCADO",
    "address": "AV. SAN MARTÍN 788",
    "phones": "",
    "latitude": -18.009794,
    "longitude": -70.245187
  },
  {
    "type": "CAJERO-UNICARD",
    "name": "RED UNICARD",
    "department": "LAMBAYEQUE",
    "province": "CHICLAYO",
    "district": "CHICLAYO",
    "address": "AV. PEDRO RUIZ GALLO 299",
    "phones": "",
    "latitude": -6.767388,
    "longitude": -79.844728
  },
  {
    "type": "CAJERO-UNICARD",
    "name": "RED UNICARD",
    "department": "PIURA",
    "province": "PIURA",
    "district": "PIURA",
    "address": "CALLE LIBERTAD 716",
    "phones": "",
    "latitude": -5.201262,
    "longitude": -80.621066
  },
  {
    "type": "CAJERO-UNICARD",
    "name": "RED UNICARD",
    "department": "ANCASH",
    "province": "ANCASH",
    "district": "HUARAZ",
    "address": "JR. CELSO BAMBAREN 1011 ",
    "phones": "",
    "latitude": -9.533654,
    "longitude": -77.528855
  },
  {
    "type": "CAJERO-UNICARD",
    "name": "RED UNICARD",
    "department": "SAN MARTÍN",
    "province": "SAN MARTÍN",
    "district": "TARAPOTO",
    "address": "JR. SAN MARTÍN 129 - 131",
    "phones": "",
    "latitude": -6.48751,
    "longitude": -76.360881
  },
  {
    "type": "CAJERO-UNICARD",
    "name": "RED UNICARD",
    "department": "AMAZONAS",
    "province": "AMAZONAS",
    "district": "CHACHAPOYAS",
    "address": "JR. ORTIZ ARRIETA 303",
    "phones": "",
    "latitude": -6.227422,
    "longitude": -77.872918
  },
  {
    "type": "CAJERO-UNICARD",
    "name": "RED UNICARD",
    "department": "ICA",
    "province": "ICA",
    "district": "CHINCHA ALTA",
    "address": "JR. LIMA 401",
    "phones": "",
    "latitude": -13.419656,
    "longitude": -76.133602
  },
  {
    "type": "CAJERO-UNICARD",
    "name": "RED UNICARD",
    "department": "LIMA",
    "province": "LIMA",
    "district": "MIRAFLORES",
    "address": "SAGA FALABELLA - AV. AREQUIPA  5200",
    "phones": "",
    "latitude": -12.118373,
    "longitude": -77.029374
  },
  {
    "type": "CAJERO-UNICARD",
    "name": "RED UNICARD",
    "department": "LIMA",
    "province": "LIMA",
    "district": "SANTIAGO DE SURCO",
    "address": "SAGA FALABELLA 1ER NIVEL - C.C. JOCKEY PLAZA, AV. JAVIER PRADO 5220",
    "phones": "",
    "latitude": -12.086314,
    "longitude": -76.977811
  },
  {
    "type": "CAJERO-UNICARD",
    "name": "RED UNICARD",
    "department": "LIMA",
    "province": "LIMA",
    "district": "CERCADO",
    "address": "SAGA FALABELLA - JR. DE LA UNIÓN 517",
    "phones": "",
    "latitude": -12.047337,
    "longitude": -77.032367
  },
  {
    "type": "CAJERO-UNICARD",
    "name": "RED UNICARD",
    "department": "LIMA",
    "province": "LIMA",
    "district": "SAN ISIDRO",
    "address": "SAGA FALABELLA - AV. PASEO DE LA REPÚBLICA 3220",
    "phones": "",
    "latitude": -12.095808,
    "longitude": -77.025447
  },
  {
    "type": "CAJERO-UNICARD",
    "name": "RED UNICARD",
    "department": "LIMA",
    "province": "LIMA",
    "district": "SAN MIGUEL",
    "address": "SAGA FALABELLA 2DO PISO - PLAZA SAN MIGUEL",
    "phones": "",
    "latitude": -12.076612,
    "longitude": -77.083608
  },
  {
    "type": "CAJERO-UNICARD",
    "name": "RED UNICARD",
    "department": "LIMA",
    "province": "LIMA",
    "district": "SANTIAGO DE SURCO",
    "address": "SAGA FALABELLA 3ER NIVEL - C.C. JOCKEY PLAZA, AV. JAVIER PRADO 5220",
    "phones": "",
    "latitude": -12.086587,
    "longitude": -76.978154
  },
  {
    "type": "CAJERO-UNICARD",
    "name": "RED UNICARD",
    "department": "LIMA",
    "province": "LIMA",
    "district": "CERCADO",
    "address": "SAGA FALABELLA - JR. DE LA UNIÓN 517",
    "phones": "",
    "latitude": -12.048252,
    "longitude": -77.033193
  },
  {
    "type": "CAJERO-UNICARD",
    "name": "RED UNICARD",
    "department": "LIMA",
    "province": "LIMA",
    "district": "LOS OLIVOS",
    "address": "TOTTUS - MEGAPLAZA - AV. ALFREDO MENDIOLA 3698",
    "phones": "",
    "latitude": -11.993783,
    "longitude": -77.062032
  },
  {
    "type": "CAJERO-UNICARD",
    "name": "RED UNICARD",
    "department": "LIMA",
    "province": "LIMA",
    "district": "SAN ISIDRO",
    "address": "TOTTUS - SAN ISIDRO AV. LAS BEGONIAS 785",
    "phones": "",
    "latitude": -12.095588,
    "longitude": -77.025388
  },
  {
    "type": "CAJERO-UNICARD",
    "name": "RED UNICARD",
    "department": "LIMA",
    "province": "LIMA",
    "district": "SAN MIGUEL",
    "address": "TOTTUS - SAN MIGUEL - AV. LA MARINA 2355",
    "phones": "",
    "latitude": -12.080208,
    "longitude": -77.089182
  },
  {
    "type": "CAJERO-UNICARD",
    "name": "RED UNICARD",
    "department": "LAMBAYEQUE",
    "province": "CHICLAYO",
    "district": "CHICLAYO",
    "address": "CALLE MIGUEL DE CERVANTES SAAVEDRA 300, PUEBLO JOVEN DIEGO FERRE",
    "phones": "",
    "latitude": -6.776681,
    "longitude": -79.834447
  },
  {
    "type": "CAJERO-UNICARD",
    "name": "RED UNICARD",
    "department": "PIURA",
    "province": "PIURA",
    "district": "PIURA",
    "address": "SAGA FALABELLA - JR. AREQUIPA 802",
    "phones": "",
    "latitude": -5.196884,
    "longitude": -80.627774
  },
  {
    "type": "CAJERO-UNICARD",
    "name": "RED UNICARD",
    "department": "AREQUIPA",
    "province": "AREQUIPA",
    "district": "CAYMA",
    "address": "SAGA FALABELLA - AV. DEL EJÉRCITO 793",
    "phones": "",
    "latitude": -16.390203,
    "longitude": -71.546482
  },
  {
    "type": "CAJERO-UNICARD",
    "name": "RED UNICARD",
    "department": "LIMA",
    "province": "LIMA",
    "district": "SAN MIGUEL",
    "address": "SAGA FALABELLA 1ER PISO - PLAZA SAN MIGUEL",
    "phones": "",
    "latitude": -12.076615,
    "longitude": -77.083616
  },
  {
    "type": "CAJERO-UNICARD",
    "name": "RED UNICARD",
    "department": "LIMA",
    "province": "LIMA",
    "district": "SAN MIGUEL",
    "address": "SODIMAC - SAN MIGUEL - AV. LA MARINA 2355",
    "phones": "",
    "latitude": -12.079112,
    "longitude": -77.089005
  },
  {
    "type": "CAJERO-UNICARD",
    "name": "RED UNICARD",
    "department": "LIMA",
    "province": "LIMA",
    "district": "SAN ISIDRO",
    "address": "SAGA FALABELLA - AV. PASEO DE LA REPUBLICA 3220",
    "phones": "",
    "latitude": -12.095037,
    "longitude": -77.02505
  },
  {
    "type": "CAJERO-UNICARD",
    "name": "RED UNICARD",
    "department": "LIMA",
    "province": "LIMA",
    "district": "SAN JUAN DE MIRAFLORES",
    "address": "AV. CIRCUNVALACIÓN 1803 1805, SAN JUAN DE MIRAFLORES(TOTTUS - SODIMAC ATOCONGO)",
    "phones": "",
    "latitude": -12.147192,
    "longitude": -76.981225
  },
  {
    "type": "CAJERO-UNICARD",
    "name": "RED UNICARD",
    "department": "LA LIBERTAD",
    "province": "TRUJILLO",
    "district": "TRUJILLO",
    "address": "JR. PIZARRO 748",
    "phones": "",
    "latitude": -8.108692,
    "longitude": -79.025219
  },
  {
    "type": "CAJERO-UNICARD",
    "name": "RED UNICARD",
    "department": "LIMA",
    "province": "LIMA",
    "district": "LOS OLIVOS",
    "address": "TOTTUS - MEGAPLAZA - AV. ALFREDO MENDIOLA 3698",
    "phones": "",
    "latitude": -11.993783,
    "longitude": -77.062032
  },
  {
    "type": "CAJERO-UNICARD",
    "name": "RED UNICARD",
    "department": "LIMA",
    "province": "LIMA",
    "district": "LOS OLIVOS",
    "address": "CENTRO FINANCIERO CMR - MEGAPLAZA - AV. ALFREDO MENDIOLA 3698",
    "phones": "",
    "latitude": -11.993951,
    "longitude": -77.061488
  },
  {
    "type": "CAJERO-UNICARD",
    "name": "RED UNICARD",
    "department": "LIMA",
    "province": "LIMA",
    "district": "LOS OLIVOS",
    "address": "TIENDA SAGA FALABELLA - MEGAPLAZA - AV. ALFREDO MENDIOLA 3698",
    "phones": "",
    "latitude": -11.993951,
    "longitude": -77.061488
  },
  {
    "type": "CAJERO-UNICARD",
    "name": "RED UNICARD",
    "department": "LIMA",
    "province": "LIMA",
    "district": "CHORRILLOS",
    "address": "AV. DEFENSORES DEL MORRO (EX HUAYLAS) SUBLOTES 3-5-7-9E",
    "phones": "",
    "latitude": -12.176023,
    "longitude": -77.018334
  },
  {
    "type": "CAJERO-UNICARD",
    "name": "RED UNICARD",
    "department": "AREQUIPA",
    "province": "AREQUIPA",
    "district": "CAYMA",
    "address": "EL SUPER - AV. DEL EJÉRCITO 793 ",
    "phones": "",
    "latitude": -16.390203,
    "longitude": -71.546482
  },
  {
    "type": "CAJERO-UNICARD",
    "name": "RED UNICARD",
    "department": "LIMA",
    "province": "LIMA",
    "district": "LA VICTORIA",
    "address": "AV. JAVIER PRADO ESTE 1059",
    "phones": "",
    "latitude": -12.089773,
    "longitude": -77.021008
  },
  {
    "type": "CAJERO-UNICARD",
    "name": "RED UNICARD",
    "department": "CAJAMARCA",
    "province": "CAJAMARCA",
    "district": "CAJAMARCA",
    "address": "SAGA FALABELLA - JR. SOR MANUELA GIL 151, BARRIO PUEBLO NUEVO, CENTRO COMERCIAL EL QUINDE",
    "phones": "",
    "latitude": -7.148927,
    "longitude": -78.509363
  },
  {
    "type": "CAJERO-UNICARD",
    "name": "RED UNICARD",
    "department": "ICA",
    "province": "ICA",
    "district": "CERCADO",
    "address": "CALLE PARQUE BARRANCA 128-148",
    "phones": "",
    "latitude": -14.068638,
    "longitude": -75.726882
  },
  {
    "type": "CAJERO-UNICARD",
    "name": "RED UNICARD",
    "department": "LIMA",
    "province": "LIMA",
    "district": "SAN ISIDRO",
    "address": "AV. RIVERA NAVARRETE 849 - 857",
    "phones": "",
    "latitude": -12.095664,
    "longitude": -77.026353
  },
  {
    "type": "CAJERO-UNICARD",
    "name": "RED UNICARD",
    "department": "LA LIBERTAD",
    "province": "TRUJILLO",
    "district": "TRUJILLO",
    "address": "AV. LAS AMÉRICAS OESTE CRUCE CON AV. MANSICHE S/N,",
    "phones": "",
    "latitude": -8.105309,
    "longitude": -79.034196
  },
  {
    "type": "CAJERO-UNICARD",
    "name": "RED UNICARD",
    "department": "LAMBAYEQUE",
    "province": "CHICLAYO",
    "district": "CHICLAYO",
    "address": "AV. VICTOR RAÚL HAYA DE LA TORRE 150",
    "phones": "",
    "latitude": -6.777597,
    "longitude": -79.835707
  },
  {
    "type": "CAJERO-UNICARD",
    "name": "RED UNICARD",
    "department": "CALLAO",
    "province": "CALLAO",
    "district": "CALLAO",
    "address": "AV. LIMA 4902 ",
    "phones": "",
    "latitude": -12.028041,
    "longitude": -77.092073
  },
  {
    "type": "CAJERO-UNICARD",
    "name": "RED UNICARD",
    "department": "LIMA",
    "province": "LIMA",
    "district": "SAN MIGUEL",
    "address": "AV. LA MARINA 2355",
    "phones": "",
    "latitude": -12.080208,
    "longitude": -77.089182
  },
  {
    "type": "CAJERO-UNICARD",
    "name": "RED UNICARD",
    "department": "LAMBAYEQUE",
    "province": "CHICLAYO",
    "district": "CHICLAYO",
    "address": "AV. SAN JOSÉ 545",
    "phones": "",
    "latitude": -6.771079,
    "longitude": -79.839948
  },
  {
    "type": "CAJERO-UNICARD",
    "name": "RED UNICARD",
    "department": "LIMA",
    "province": "LIMA",
    "district": "CERCADO",
    "address": "AV. TACNA 640 - 644",
    "phones": "",
    "latitude": -12.048092,
    "longitude": -77.038901
  },
  {
    "type": "CAJERO-UNICARD",
    "name": "RED UNICARD",
    "department": "CALLAO",
    "province": "CALLAO",
    "district": "CERCADO",
    "address": "CALLE CASTILLO 450",
    "phones": "",
    "latitude": -12.059498,
    "longitude": -77.142037
  },
  {
    "type": "CAJERO-UNICARD",
    "name": "RED UNICARD",
    "department": "LIMA",
    "province": "LIMA",
    "district": "CHORRILLOS",
    "address": "AV. DEFENSORES DEL MORRO (EX HUAYLAS) SUBLOTES 3-5-7-9E",
    "phones": "",
    "latitude": -12.191623,
    "longitude": -77.004697
  },
  {
    "type": "CAJERO-UNICARD",
    "name": "RED UNICARD",
    "department": "LIMA",
    "province": "LIMA",
    "district": "SAN JUAN DE LURIGANCHO",
    "address": "AV. GRAN CHIMÚ 438",
    "phones": "",
    "latitude": -12.027023,
    "longitude": -77.005877
  },
  {
    "type": "CAJERO-UNICARD",
    "name": "RED UNICARD",
    "department": "LIMA",
    "province": "LIMA",
    "district": "LIMA",
    "address": "TOTTUS - CRILLÓN , AV. TACNA 665 ",
    "phones": "",
    "latitude": -12.048166,
    "longitude": -77.038397
  },
  {
    "type": "CAJERO-UNICARD",
    "name": "RED UNICARD",
    "department": "CALLAO",
    "province": "CALLAO",
    "district": "CALLAO",
    "address": "ESQUINA CARRETERA CANTA-CALLAO CON AV. ALEJANDRO BERTELLO ",
    "phones": "",
    "latitude": -11.996821,
    "longitude": -77.112785
  },
  {
    "type": "CAJERO-UNICARD",
    "name": "RED UNICARD",
    "department": "LIMA",
    "province": "LIMA",
    "district": "EL AGUSTINO",
    "address": "JR. ANCASH Y CALLE 4 (TOTTUS LA POLVORA)",
    "phones": "",
    "latitude": -12.039373,
    "longitude": -77.004794
  },
  {
    "type": "CAJERO-UNICARD",
    "name": "RED UNICARD",
    "department": "LIMA",
    "province": "LIMA",
    "district": "SAN JUAN DE MIRAFLORES",
    "address": "AV. CIRCUNVALACIÓN 1803 1805 (TOTTUS - SODIMAC ATOCONGO)",
    "phones": "",
    "latitude": -12.147071,
    "longitude": -76.981491
  },
  {
    "type": "CAJERO-UNICARD",
    "name": "RED UNICARD",
    "department": "LIMA",
    "province": "LIMA",
    "district": "PUENTE PIEDRA",
    "address": "TOTTUS - PUENTE PIEDRA , AV. PUENTE PIEDRA SUR 443, EX FUNDO CHAVARRIA",
    "phones": "",
    "latitude": -11.868495,
    "longitude": -77.071892
  },
  {
    "type": "CAJERO-UNICARD",
    "name": "RED UNICARD",
    "department": "LIMA",
    "province": "LIMA",
    "district": "VILLA MARÍA DEL TRIUNFO",
    "address": "AV. PROLONGACION  PACHACUTEC LT 16, TABLADA DE LURÍN",
    "phones": "",
    "latitude": -12.169264,
    "longitude": -76.950366
  },
  {
    "type": "CAJERO-UNICARD",
    "name": "RED UNICARD",
    "department": "LA LIBERTAD",
    "province": "TRUJILLO",
    "district": "TRUJILLO",
    "address": "AV. AMÉRICA NORTE 1245",
    "phones": "",
    "latitude": -8.09413,
    "longitude": -79.023505
  },
  {
    "type": "CAJERO-UNICARD",
    "name": "RED UNICARD",
    "department": "CALLAO",
    "province": "CALLAO",
    "district": "URB. DEL ÁGUILA",
    "address": "AV. OSCAR  BENAVIDES 3866 ",
    "phones": "",
    "latitude": -12.055059,
    "longitude": -77.106278
  },
  {
    "type": "CAJERO-UNICARD",
    "name": "RED UNICARD",
    "department": "ICA",
    "province": "ICA",
    "district": "ICA",
    "address": "ESQUINA AV. SAN MARTÍN CON AV. CUTERVO",
    "phones": "",
    "latitude": -14.071979,
    "longitude": -75.72803
  },
  {
    "type": "CAJERO-UNICARD",
    "name": "RED UNICARD",
    "department": "CUSCO",
    "province": "CUSCO",
    "district": "CUSCO",
    "address": "CALLE PORTAL ESPINAR 146",
    "phones": "",
    "latitude": -13.517058,
    "longitude": -71.979885
  },
  {
    "type": "CAJERO-UNICARD",
    "name": "RED UNICARD",
    "department": "CUSCO",
    "province": "CUSCO",
    "district": "CUSCO",
    "address": "CALLE PORTAL ESPINAR 146",
    "phones": "",
    "latitude": -13.517058,
    "longitude": -71.979885
  },
  {
    "type": "CAJERO-UNICARD",
    "name": "RED UNICARD",
    "department": "CUSCO",
    "province": "CUSCO",
    "district": "CUSCO",
    "address": "CALLE PORTAL ESPINAR 146",
    "phones": "",
    "latitude": -13.517058,
    "longitude": -71.979885
  },
  {
    "type": "CAJERO-UNICARD",
    "name": "RED UNICARD",
    "department": "CUSCO",
    "province": "CUSCO",
    "district": "CUSCO",
    "address": "CALLE AFLIGIDOS 118",
    "phones": "",
    "latitude": -13.519309,
    "longitude": -71.977208
  },
  {
    "type": "CAJERO-UNICARD",
    "name": "RED UNICARD",
    "department": "CUSCO",
    "province": "CUSCO",
    "district": "CUSCO",
    "address": "CALLE AFLIGIDOS 118",
    "phones": "",
    "latitude": -13.519309,
    "longitude": -71.977208
  },
  {
    "type": "CAJERO-UNICARD",
    "name": "RED UNICARD",
    "department": "CUSCO",
    "province": "CUSCO",
    "district": "WANCHAQ",
    "address": "AV. RAMÓN ZAVALETA 179",
    "phones": "",
    "latitude": -13.525661,
    "longitude": -71.970937
  },
  {
    "type": "CAJERO-UNICARD",
    "name": "RED UNICARD",
    "department": "CUSCO",
    "province": "CUSCO",
    "district": "CUSCO",
    "address": "PROLONGACION AV. DE LA CULTURA N° 1220, SAN SEBASTIÁN",
    "phones": "",
    "latitude": -13.532003,
    "longitude": -71.919068
  },
  {
    "type": "CAJERO-UNICARD",
    "name": "RED UNICARD",
    "department": "CUSCO",
    "province": "CUSCO",
    "district": "WANCHAQ",
    "address": "JR. LA UNIÓN G-2 URB TTIO",
    "phones": "",
    "latitude": -13.534131,
    "longitude": -71.960857
  },
  {
    "type": "CAJERO-UNICARD",
    "name": "RED UNICARD",
    "department": "CUSCO",
    "province": "CUSCO",
    "district": "CUSCO",
    "address": "URB INDUSTRIAL CACHIMAYO  F-0, SAN SEBASTIÁN",
    "phones": "",
    "latitude": -13.534695,
    "longitude": -71.907712
  },
  {
    "type": "CAJERO-UNICARD",
    "name": "RED UNICARD",
    "department": "CUSCO",
    "province": "CUSCO",
    "district": "QUILLABAMBA",
    "address": "ESQ. AV GRAU Y RICARDO PALMA",
    "phones": "",
    "latitude": -16.413661,
    "longitude": -71.573085
  },
  {
    "type": "CAJERO-UNICARD",
    "name": "RED UNICARD",
    "department": "AREQUIPA",
    "province": "AREQUIPA",
    "district": "AREQUIPA",
    "address": "CALLE LA MERCED 119",
    "phones": "",
    "latitude": -16.399649,
    "longitude": -71.537883
  },
  {
    "type": "CAJERO-UNICARD",
    "name": "RED UNICARD",
    "department": "PUNO",
    "province": "PUNO",
    "district": "PUNO",
    "address": "JR. AREQUIPA 346",
    "phones": "",
    "latitude": -15.84584,
    "longitude": -70.022245
  },
  {
    "type": "CAJERO-UNICARD",
    "name": "RED UNICARD",
    "department": "APURÍMAC",
    "province": "APURÍMAC",
    "district": "ABANCAY",
    "address": "ESQ. DÍAZ BARCENA S. Y AV. NUÑEZ",
    "phones": "",
    "latitude": -13.635425,
    "longitude": -72.876842
  },
  {
    "type": "CAJERO-UNICARD",
    "name": "RED UNICARD",
    "department": "CUSCO",
    "province": "CUSCO",
    "district": "SICUANI   ",
    "address": "AV CENTENARIO  117",
    "phones": "",
    "latitude": -13.522803,
    "longitude": -71.977208
  },
  {
    "type": "CAJERO-UNICARD",
    "name": "RED UNICARD",
    "department": "PIURA",
    "province": "PIURA",
    "district": "SULLANA",
    "address": "PLAZA DE ARMAS 138",
    "phones": "",
    "latitude": -4.890044,
    "longitude": -80.687665
  },
  {
    "type": "CAJERO-UNICARD",
    "name": "RED UNICARD",
    "department": "CUSCO",
    "province": "CUSCO",
    "district": "CUSCO",
    "address": "AV. EL SOL 457 ",
    "phones": "",
    "latitude": -13.521259,
    "longitude": -71.975832
  },
  {
    "type": "CAJERO-UNICARD",
    "name": "RED UNICARD",
    "department": "LIMA",
    "province": "LIMA",
    "district": "LURÍN",
    "address": "URB. LAS VIRREYNAS MZ. B LT. 5,",
    "phones": "",
    "latitude": -12.277255,
    "longitude": -76.869471
  },
  {
    "type": "CAJERO-UNICARD",
    "name": "RED UNICARD",
    "department": "ICA",
    "province": "ICA",
    "district": "CERCADO",
    "address": "AV. SAN MARTÍN 1218",
    "phones": "",
    "latitude": -14.020381,
    "longitude": -75.752631
  },
  {
    "type": "CAJERO-UNICARD",
    "name": "RED UNICARD",
    "department": "ICA",
    "province": "ICA",
    "district": "CERCADO",
    "address": "AV. GRAU 198",
    "phones": "",
    "latitude": -14.075777,
    "longitude": -75.722204
  },
  {
    "type": "CAJERO-UNICARD",
    "name": "RED UNICARD",
    "department": "LIMA",
    "province": "LIMA",
    "district": "SURCO",
    "address": "JOCKEY CLUB, AV. EL DERBY PUERTA 3 S/N ",
    "phones": "",
    "latitude": -12.097917,
    "longitude": -76.975558
  },
  {
    "type": "CAJERO-UNICARD",
    "name": "RED UNICARD",
    "department": "LIMA",
    "province": "LIMA",
    "district": "SAN ISIDRO",
    "address": "AV. RIVERA NAVARRETE 600",
    "phones": "",
    "latitude": -12.0935,
    "longitude": -77.02696
  },
  {
    "type": "CAJERO-UNICARD",
    "name": "RED UNICARD",
    "department": "LIMA",
    "province": "LIMA",
    "district": "SAN ISIDRO",
    "address": "AV. RIVERA NAVARRETE 600",
    "phones": "",
    "latitude": -12.0935,
    "longitude": -77.02696
  },
  {
    "type": "CAJERO-UNICARD",
    "name": "RED UNICARD",
    "department": "LIMA",
    "province": "LIMA",
    "district": "SAN ISIDRO",
    "address": "AV. RIVERA NAVARRETE 600",
    "phones": "",
    "latitude": -12.0935,
    "longitude": -77.02696
  },
  {
    "type": "CAJERO-UNICARD",
    "name": "RED UNICARD",
    "department": "LIMA",
    "province": "LIMA",
    "district": "MIRAFLORES",
    "address": "AV. JOSÉ PARDO 450",
    "phones": "",
    "latitude": -12.119023,
    "longitude": -77.033215
  },
  {
    "type": "CAJERO-UNICARD",
    "name": "RED UNICARD",
    "department": "LIMA",
    "province": "LIMA",
    "district": "MIRAFLORES",
    "address": "AV. LARCO 712",
    "phones": "",
    "latitude": -12.125065,
    "longitude": -77.029409
  },
  {
    "type": "CAJERO-UNICARD",
    "name": "RED UNICARD",
    "department": "LIMA",
    "province": "LIMA",
    "district": "MIRAFLORES",
    "address": "AV. 28 DE JULIO ESQ. CALLE VASCO NUÑES DE BALBOA",
    "phones": "",
    "latitude": -12.129324,
    "longitude": -77.02387
  },
  {
    "type": "CAJERO-UNICARD",
    "name": "RED UNICARD",
    "department": "LIMA",
    "province": "LIMA",
    "district": "JESÚS MARÍA",
    "address": "C. C. RESIDENCIAL SAN FELIPE, EDIFICIO 67B TIENDA 10",
    "phones": "",
    "latitude": -12.08773,
    "longitude": -77.05405
  },
  {
    "type": "CAJERO-UNICARD",
    "name": "RED UNICARD",
    "department": "LIMA",
    "province": "LIMA",
    "district": "SAN MIGUEL",
    "address": "AV. LA MARINA 2230-2232",
    "phones": "",
    "latitude": -12.077638,
    "longitude": -77.085963
  },
  {
    "type": "CAJERO-UNICARD",
    "name": "RED UNICARD",
    "department": "LIMA",
    "province": "LIMA",
    "district": "SAN ISIDRO",
    "address": "AV. ALBERTO DEL CAMPO 293-295",
    "phones": "",
    "latitude": -12.098098,
    "longitude": -77.05549
  },
  {
    "type": "CAJERO-UNICARD",
    "name": "RED UNICARD",
    "department": "LIMA",
    "province": "LIMA",
    "district": "LOS OLIVOS",
    "address": "AV. ALFREDO MENDIOLA 3599",
    "phones": "",
    "latitude": -11.993337,
    "longitude": -77.064006
  },
  {
    "type": "CAJERO-UNICARD",
    "name": "RED UNICARD",
    "department": "LIMA",
    "province": "LIMA",
    "district": "SAN MARTÍN DE PORRES",
    "address": "C. C. FIORI, PANAMERICANA NORTE ESQ. CON AV. TOMÁS VALLE",
    "phones": "",
    "latitude": -12.007085,
    "longitude": -77.060369
  },
  {
    "type": "CAJERO-UNICARD",
    "name": "RED UNICARD",
    "department": "LIMA",
    "province": "LIMA",
    "district": "CERCADO",
    "address": "JR. UCAYALI 767 - 773",
    "phones": "",
    "latitude": -12.051125,
    "longitude": -77.025232
  },
  {
    "type": "CAJERO-UNICARD",
    "name": "RED UNICARD",
    "department": "LIMA",
    "province": "LIMA",
    "district": "CERCADO",
    "address": "JR. DE LA UNIÓN 798",
    "phones": "",
    "latitude": -12.049352,
    "longitude": -77.03373
  },
  {
    "type": "CAJERO-UNICARD",
    "name": "RED UNICARD",
    "department": "LIMA",
    "province": "LIMA",
    "district": "LINCE",
    "address": "AV. ARENALES 2099",
    "phones": "",
    "latitude": -12.085233,
    "longitude": -77.035414
  },
  {
    "type": "CAJERO-UNICARD",
    "name": "RED UNICARD",
    "department": "LIMA",
    "province": "LIMA",
    "district": "SAN ISIDRO",
    "address": "CALLE MIGUEL DASSO 120",
    "phones": "",
    "latitude": -12.106482,
    "longitude": -77.04029
  },
  {
    "type": "CAJERO-UNICARD",
    "name": "RED UNICARD",
    "department": "LIMA",
    "province": "LIMA",
    "district": "SAN ISIDRO",
    "address": "AV. DOS DE MAYO 1504",
    "phones": "",
    "latitude": -12.092467,
    "longitude": -77.046969
  },
  {
    "type": "CAJERO-UNICARD",
    "name": "RED UNICARD",
    "department": "LIMA",
    "province": "LIMA",
    "district": "SAN BORJA",
    "address": "CALLE MORELLI 141",
    "phones": "",
    "latitude": -12.088827,
    "longitude": -77.004311
  },
  {
    "type": "CAJERO-UNICARD",
    "name": "RED UNICARD",
    "department": "LIMA",
    "province": "LIMA",
    "district": "LA MOLINA",
    "address": "AV. JAVIER PRADO ESTE 5301",
    "phones": "",
    "latitude": -12.0764,
    "longitude": -76.964239
  },
  {
    "type": "CAJERO-UNICARD",
    "name": "RED UNICARD",
    "department": "LIMA",
    "province": "LIMA",
    "district": "SANTA ANITA",
    "address": "AV. NICOLÁS AYLLON ESQ. AV. FRANCISCO BOLOGNESI",
    "phones": "",
    "latitude": -12.056172,
    "longitude": -76.969378
  },
  {
    "type": "CAJERO-UNICARD",
    "name": "RED UNICARD",
    "department": "LIMA",
    "province": "LIMA",
    "district": "SANTIAGO DE SURCO",
    "address": "AV. LA ENCALADA 721",
    "phones": "",
    "latitude": -12.108491,
    "longitude": -76.972114
  },
  {
    "type": "CAJERO-UNICARD",
    "name": "RED UNICARD",
    "department": "LIMA",
    "province": "LIMA",
    "district": "MIRAFLORES",
    "address": "AV. LUIS ARIAS SCHEREIBER 147 - URB. LA AURORA",
    "phones": "",
    "latitude": -12.120984,
    "longitude": -77.010384
  },
  {
    "type": "CAJERO-UNICARD",
    "name": "RED UNICARD",
    "department": "LIMA",
    "province": "LIMA",
    "district": "SANTIAGO DE SURCO",
    "address": "CALLE MONTE ROSA 165",
    "phones": "",
    "latitude": -12.112068,
    "longitude": -76.991254
  },
  {
    "type": "CAJERO-UNICARD",
    "name": "RED UNICARD",
    "department": "LIMA",
    "province": "LIMA",
    "district": "CHORRILLOS",
    "address": "AV. PROLONGACION PASEO DE LA REPUBLICA S/N.",
    "phones": "",
    "latitude": -12.172263,
    "longitude": -77.013978
  },
  {
    "type": "CAJERO-UNICARD",
    "name": "RED UNICARD",
    "department": "LIMA",
    "province": "LIMA",
    "district": "SANTIAGO DE SURCO",
    "address": "AV. MORRO SOLAR 1030",
    "phones": "",
    "latitude": -12.1211,
    "longitude": -76.976845
  },
  {
    "type": "CAJERO-UNICARD",
    "name": "RED UNICARD",
    "department": "LIMA",
    "province": "LIMA",
    "district": "SANTIAGO DE SURCO",
    "address": "C. C. JOCKEY PLAZA - PISO 1 TIENDA 115",
    "phones": "",
    "latitude": -12.08517,
    "longitude": -76.976159
  },
  {
    "type": "CAJERO-UNICARD",
    "name": "RED UNICARD",
    "department": "LIMA",
    "province": "LIMA",
    "district": "LA MOLINA",
    "address": "CALLE LAS RETAMAS 198",
    "phones": "",
    "latitude": -12.092409,
    "longitude": -76.949653
  },
  {
    "type": "CAJERO-UNICARD",
    "name": "RED UNICARD",
    "department": "LIMA",
    "province": "LIMA",
    "district": "MIRAFLORES",
    "address": "AV. SANTA CRUZ 818",
    "phones": "",
    "latitude": -12.111481,
    "longitude": -77.038107
  },
  {
    "type": "CAJERO-UNICARD",
    "name": "RED UNICARD",
    "department": "CALLAO",
    "province": "CALLAO",
    "district": "CARMEN DE LA LEGUA",
    "address": "CALLE OMEGA 181",
    "phones": "",
    "latitude": -12.021849,
    "longitude": -77.094047
  },
  {
    "type": "CAJERO-UNICARD",
    "name": "RED UNICARD",
    "department": "LA LIBERTAD",
    "province": "LA LIBERTAD",
    "district": "CERCADO",
    "address": "JR. JUNÍN 479",
    "phones": "",
    "latitude": -8.108841,
    "longitude": -79.026241
  },
  {
    "type": "CAJERO-UNICARD",
    "name": "RED UNICARD",
    "department": "LAMBAYEQUE",
    "province": "LAMBAYEQUE",
    "district": "CERCADO",
    "address": "CALLE BALTA 605",
    "phones": "",
    "latitude": -6.756734,
    "longitude": -79.826397
  },
  {
    "type": "CAJERO-UNICARD",
    "name": "RED UNICARD",
    "department": "PIURA",
    "province": "PIURA",
    "district": "CERCADO",
    "address": "CALLE TACNA 602",
    "phones": "",
    "latitude": -5.20533,
    "longitude": -80.62481
  },
  {
    "type": "CAJERO-UNICARD",
    "name": "RED UNICARD",
    "department": "LIMA",
    "province": "LIMA",
    "district": "SAN BORJA",
    "address": "AV. GUARDIA CIVIL 337",
    "phones": "",
    "latitude": -12.091475,
    "longitude": -77.008667
  },
  {
    "type": "CAJERO-UNICARD",
    "name": "RED UNICARD",
    "department": "ICA",
    "province": "ICA",
    "district": "CERCADO",
    "address": "AV. SAN MARTÍN ESQUINA CUTERVO 1008",
    "phones": "",
    "latitude": -14.071979,
    "longitude": -75.72803
  },
  {
    "type": "CAJERO-UNICARD",
    "name": "RED UNICARD",
    "department": "LA LIBERTAD",
    "province": "LA LIBERTAD",
    "district": "LA MERCED ",
    "address": "AV.  LARCO 857",
    "phones": "",
    "latitude": -8.121855,
    "longitude": -79.036479
  },
  {
    "type": "CAJERO-UNICARD",
    "name": "RED UNICARD",
    "department": "LIMA",
    "province": "LIMA",
    "district": "SANTA ANITA",
    "address": "AV. DE LA CULTURA S/N",
    "phones": "",
    "latitude": -12.044252,
    "longitude": -76.945227
  },
  {
    "type": "CAJERO-UNICARD",
    "name": "RED UNICARD",
    "department": "LIMA",
    "province": "LIMA",
    "district": "LA MOLINA",
    "address": "ALAMEDA DEL CORREGIDOR 1865 - FACULTAD DE DERECHO UNSMP EDIFICIO 637",
    "phones": "",
    "latitude": -12.097728,
    "longitude": -76.950409
  },
  {
    "type": "CAJERO-UNICARD",
    "name": "RED UNICARD",
    "department": "LA LIBERTAD",
    "province": "LA LIBERTAD",
    "district": "CERCADO",
    "address": "AV. LAREDO S/N SECTOR BARRIO NUEVO - MOCHE",
    "phones": "",
    "latitude": -8.083831,
    "longitude": -78.959749
  },
  {
    "type": "CAJERO-UNICARD",
    "name": "RED UNICARD",
    "department": "PIURA",
    "province": "PIURA",
    "district": "CERCADO",
    "address": "AV. GRAU 555",
    "phones": "",
    "latitude": -5.194841,
    "longitude": -80.63216
  },
  {
    "type": "CAJERO-UNICARD",
    "name": "RED UNICARD",
    "department": "LAMBAYEQUE",
    "province": "LAMBAYEQUE",
    "district": "DIEGO FERRE",
    "address": "AV. MIGUEL CERVANTES 300",
    "phones": "",
    "latitude": -6.776529,
    "longitude": -79.834439
  },
  {
    "type": "CAJERO-UNICARD",
    "name": "RED UNICARD",
    "department": "LIMA",
    "province": "LIMA",
    "district": "INDEPENDENCIA",
    "address": "AV. ALFREDO MENDIOLA 3698",
    "phones": "",
    "latitude": -11.991301,
    "longitude": -77.063985
  },
  {
    "type": "CAJERO-UNICARD",
    "name": "RED UNICARD",
    "department": "CAJAMARCA",
    "province": "CAJAMARCA",
    "district": "CERCADO",
    "address": "JR. APURIMAC 653",
    "phones": "",
    "latitude": -7.15689,
    "longitude": -78.519684
  },
  {
    "type": "CAJERO-UNICARD",
    "name": "RED UNICARD",
    "department": "LIMA",
    "province": "LIMA",
    "district": "MIRAFLORES",
    "address": "AV. LARCO 712",
    "phones": "",
    "latitude": -12.125222,
    "longitude": -77.029395
  },
  {
    "type": "CAJERO-UNICARD",
    "name": "RED UNICARD",
    "department": "CUSCO",
    "province": "CUSCO",
    "district": "CERCADO",
    "address": "CALLE SANTA CATALINA ANGOSTA 156",
    "phones": "",
    "latitude": -13.516721,
    "longitude": -71.977701
  },
  {
    "type": "CAJERO-UNICARD",
    "name": "RED UNICARD",
    "department": "CUSCO",
    "province": "CUSCO",
    "district": "CERCADO",
    "address": "CALLE EL PORTAL DE PANES 163",
    "phones": "",
    "latitude": -13.516106,
    "longitude": -71.979289
  },
  {
    "type": "CAJERO-UNICARD",
    "name": "RED UNICARD",
    "department": "CUSCO",
    "province": "CUSCO",
    "district": "CUSCO",
    "address": "PLAZUELA LAS NAZARENAS 159",
    "phones": "",
    "latitude": -13.515167,
    "longitude": -71.977186
  },
  {
    "type": "CAJERO-UNICARD",
    "name": "RED UNICARD",
    "department": "LIMA",
    "province": "LIMA",
    "district": "LA MOLINA",
    "address": "AV. RICARDO ELIAS APARICIO 805",
    "phones": "",
    "latitude": -12.076756,
    "longitude": -76.91627
  },
  {
    "type": "CAJERO-UNICARD",
    "name": "RED UNICARD",
    "department": "LIMA",
    "province": "LIMA",
    "district": "LA VICTORIA",
    "address": "JR. SEBASTIÁN BARRANCA 1691",
    "phones": "",
    "latitude": -12.066139,
    "longitude": -77.011414
  },
  {
    "type": "CAJERO-UNICARD",
    "name": "RED UNICARD",
    "department": "LIMA",
    "province": "LIMA",
    "district": "SAN MIGUEL",
    "address": "CALLE LUIS BANCHERO ROSSI, URB. MARANGA",
    "phones": "",
    "latitude": -12.07652,
    "longitude": -77.092497
  },
  {
    "type": "CAJERO-UNICARD",
    "name": "RED UNICARD",
    "department": "CUSCO",
    "province": "CUSCO",
    "district": "CERCADO",
    "address": "CALLE SANTA CATALINA ANGOSTA",
    "phones": "",
    "latitude": -13.517144,
    "longitude": -71.977417
  },
  {
    "type": "CAJERO-UNICARD",
    "name": "RED UNICARD",
    "department": "CALLAO",
    "province": "CALLAO",
    "district": "CALLAO",
    "address": "AV. ARGENTINA 3093, CENTRO COMERCIAL MINKA",
    "phones": "",
    "latitude": -12.047925,
    "longitude": -77.113767
  },
  {
    "type": "CAJERO-UNICARD",
    "name": "RED UNICARD",
    "department": "CALLAO",
    "province": "CALLAO",
    "district": "CALLAO",
    "address": "AV. ARGENTINA 3093, CENTRO COMERCIAL MINKA",
    "phones": "",
    "latitude": -12.047841,
    "longitude": -77.113101
  },
  {
    "type": "CAJERO-UNICARD",
    "name": "RED UNICARD",
    "department": "PIURA",
    "province": "PIURA",
    "district": "TALARA",
    "address": "AV. MARISCAL CASTILLA D10",
    "phones": "",
    "latitude": -5.185021,
    "longitude": -80.664282
  },
  {
    "type": "CAJERO-UNICARD",
    "name": "RED UNICARD",
    "department": "LIMA",
    "province": "LIMA",
    "district": "SANTIAGO DE SURCO",
    "address": "AV. BENAVIDES 5161, URB. LAS GARDENIAS",
    "phones": "",
    "latitude": -12.128936,
    "longitude": -76.983519
  },
  {
    "type": "CAJERO-UNICARD",
    "name": "RED UNICARD",
    "department": "ICA",
    "province": "ICA",
    "district": "CHINCHA ALTA",
    "address": "AV. LUIS GALVEZ CHIPOCO",
    "phones": "",
    "latitude": -13.404268,
    "longitude": -76.129589
  },
  {
    "type": "CAJERO-UNICARD",
    "name": "RED UNICARD",
    "department": "CAJAMARCA",
    "province": "CAJAMARCA",
    "district": "CAJAMARCA",
    "address": "AV. RAFAEL HOYOS RUBIOS",
    "phones": "",
    "latitude": -7.148108,
    "longitude": -78.504589
  },
  {
    "type": "CAJERO-UNICARD",
    "name": "RED UNICARD",
    "department": "PIURA",
    "province": "PIURA",
    "district": "PIURA",
    "address": "CENTRO COMERCIAL PLAZA DEL SOL - CALLE HUANCAVELICA 500",
    "phones": "",
    "latitude": -5.196027,
    "longitude": -80.630529
  },
  {
    "type": "CAJERO-UNICARD",
    "name": "RED UNICARD",
    "department": "LA LIBERTAD",
    "province": "TRUJILLO",
    "district": "TRUJILLO",
    "address": "EMTRAFESA, AV. TÚPAC AMARU 185, URB HUERTA GRANDE",
    "phones": "",
    "latitude": -8.103185,
    "longitude": -79.02468
  },
  {
    "type": "CAJERO-UNICARD",
    "name": "RED UNICARD",
    "department": "AREQUIPA",
    "province": "AREQUIPA",
    "district": "CAYMA",
    "address": "AV. CAYMA 610",
    "phones": "",
    "latitude": -16.377812,
    "longitude": -71.544557
  },
  {
    "type": "CAJERO-UNICARD",
    "name": "RED UNICARD",
    "department": "LIMA",
    "province": "LIMA",
    "district": "JESÚS MARÍA",
    "address": "AV. HORACIO URTEAGA 1438 - 1456",
    "phones": "",
    "latitude": -12.075639,
    "longitude": -77.049957
  },
  {
    "type": "CAJERO-UNICARD",
    "name": "RED UNICARD",
    "department": "LIMA",
    "province": "LIMA",
    "district": "LA VICTORIA",
    "address": "EL REY DE BARRANCA - JR. SEBASTIÁN BARRANCA 1575",
    "phones": "",
    "latitude": -12.066517,
    "longitude": -77.013731
  },
  {
    "type": "CAJERO-UNICARD",
    "name": "RED UNICARD",
    "department": "LIMA",
    "province": "LIMA",
    "district": "MIRAFLORES",
    "address": "AV. LARCO 712",
    "phones": "",
    "latitude": -12.12518,
    "longitude": -77.029395
  },
  {
    "type": "CAJERO-UNICARD",
    "name": "RED UNICARD",
    "department": "LIMA",
    "province": "LIMA",
    "district": "INDEPENDENCIA",
    "address": "C.C. PLAZA LIMA NORTE - TIENDA CF5 - ESQ. PANAMERICANA NORTE CON TOMAS VALLE",
    "phones": " ",
    "latitude": -12.006423,
    "longitude": -77.058899
  },
  {
    "type": "CAJERO-UNICARD",
    "name": "RED UNICARD",
    "department": "LIMA",
    "province": "LIMA",
    "district": "INDEPENDENCIA",
    "address": "C.C. PLAZA LIMA NORTE - TIENDA CF5 - ESQ. PANAMERICANA NORTE CON TOMAS VALLE",
    "phones": "",
    "latitude": -12.006423,
    "longitude": -77.058899
  },
  {
    "type": "CAJERO-UNICARD",
    "name": "RED UNICARD",
    "department": "LIMA",
    "province": "LIMA",
    "district": "SAN JUAN DE LURIGANCHO",
    "address": "AV. PRÓCERES DE LA INDEPENDENCIA 1921",
    "phones": "",
    "latitude": -12.001271,
    "longitude": -77.009032
  },
  {
    "type": "CAJERO-UNICARD",
    "name": "RED UNICARD",
    "department": "CALLAO",
    "province": "CALLAO",
    "district": "CALLAO",
    "address": "AV. ELMER FAUCETT 365 - 375",
    "phones": "",
    "latitude": -12.068699,
    "longitude": -77.097652
  },
  {
    "type": "CAJERO-UNICARD",
    "name": "RED UNICARD",
    "department": "LIMA",
    "province": "LIMA",
    "district": "CAÑETE",
    "address": "BOULEVAR DE ASIA - PANAMERICANA SUR KM 97.5",
    "phones": "",
    "latitude": -12.760575,
    "longitude": -76.603546
  },
  {
    "type": "CAJERO-UNICARD",
    "name": "RED UNICARD",
    "department": "LIMA",
    "province": "LIMA",
    "district": "SAN BORJA",
    "address": "AV. SAN LUIS 2149 - 2155",
    "phones": "",
    "latitude": -12.092178,
    "longitude": -76.995728
  },
  {
    "type": "CAJERO-UNICARD",
    "name": "RED UNICARD",
    "department": "AREQUIPA",
    "province": "AREQUIPA",
    "district": "AREQUIPA",
    "address": "CALLE MERCADERES 241",
    "phones": "",
    "latitude": -16.399337,
    "longitude": -71.533712
  },
  {
    "type": "CAJERO-UNICARD",
    "name": "RED UNICARD",
    "department": "AREQUIPA",
    "province": "AREQUIPA",
    "district": "AREQUIPA",
    "address": "CALLE MERCADERES 241",
    "phones": "",
    "latitude": -16.399466,
    "longitude": -71.533334
  },
  {
    "type": "CAJERO-UNICARD",
    "name": "RED UNICARD",
    "department": "AREQUIPA",
    "province": "AREQUIPA",
    "district": "JOSE LUIS BUSTAMANTE Y RIVERO",
    "address": "AV. ALCIDES CARRIÓN 271",
    "phones": "",
    "latitude": -16.408248,
    "longitude": -71.538098
  },
  {
    "type": "CAJERO-UNICARD",
    "name": "RED UNICARD",
    "department": "AREQUIPA",
    "province": "AREQUIPA",
    "district": "AREQUIPA",
    "address": "AV. MARISCAL CASTILLA 602",
    "phones": "",
    "latitude": -16.384256,
    "longitude": -71.546123
  },
  {
    "type": "CAJERO-UNICARD",
    "name": "RED UNICARD",
    "department": "AREQUIPA",
    "province": "AREQUIPA",
    "district": "CAYMA",
    "address": "AV. EJÉRCITO 1002",
    "phones": "",
    "latitude": -16.388023,
    "longitude": -71.551992
  },
  {
    "type": "CAJERO-UNICARD",
    "name": "RED UNICARD",
    "department": "AREQUIPA",
    "province": "AREQUIPA",
    "district": "AREQUIPA",
    "address": "CALLE LA MERCED 106",
    "phones": "",
    "latitude": -16.399232,
    "longitude": -71.537615
  },
  {
    "type": "CAJERO-UNICARD",
    "name": "RED UNICARD",
    "department": "PUNO",
    "province": "PUNO",
    "district": "JULIACA - SAN ROMÁN",
    "address": "JR. DOS DE MAYO 203",
    "phones": "",
    "latitude": -15.823925,
    "longitude": -70.030203
  },
  {
    "type": "CAJERO-UNICARD",
    "name": "RED UNICARD",
    "department": "MOQUEGUA",
    "province": "MOQUEGUA",
    "district": "ILO",
    "address": "JR. ZEPITA 311",
    "phones": "",
    "latitude": -17.644932,
    "longitude": -71.345376
  },
  {
    "type": "CAJERO-UNICARD",
    "name": "RED UNICARD",
    "department": "AREQUIPA",
    "province": "AREQUIPA",
    "district": "AREQUIPA",
    "address": "AV. MARISCAL CASTILLA 602",
    "phones": "",
    "latitude": -16.384215,
    "longitude": -71.546123
  },
  {
    "type": "CAJERO-UNICARD",
    "name": "RED UNICARD",
    "department": "AREQUIPA",
    "province": "AREQUIPA",
    "district": "CAYLLOMA",
    "address": "VILLA EL PEDREGAL MZ. G LOTE 4",
    "phones": "",
    "latitude": -16.348473,
    "longitude": -72.202835
  },
  {
    "type": "CAJERO-UNICARD",
    "name": "RED UNICARD",
    "department": "AREQUIPA",
    "province": "AREQUIPA",
    "district": "AREQUIPA",
    "address": "CALLE PIÉROLA 401",
    "phones": "",
    "latitude": -16.401676,
    "longitude": -71.535029
  },
  {
    "type": "CAJERO-UNICARD",
    "name": "RED UNICARD",
    "department": "MOQUEGUA",
    "province": "MOQUEGUA",
    "district": "MOLLENDO - ISLAY",
    "address": "CALLE BOLOGNESI 101",
    "phones": "",
    "latitude": -17.646813,
    "longitude": -71.340988
  },
  {
    "type": "CAJERO-UNICARD",
    "name": "RED UNICARD",
    "department": "AREQUIPA",
    "province": "AREQUIPA",
    "district": "CAMANÁ",
    "address": "JR. PIÉROLA 110",
    "phones": "",
    "latitude": -16.62328,
    "longitude": -72.709751
  },
  {
    "type": "CAJERO-UNICARD",
    "name": "RED UNICARD",
    "department": "APURÍMAC",
    "province": "APURÍMAC",
    "district": "ABANCAY",
    "address": "JR. AREQUIPA 210",
    "phones": "",
    "latitude": -13.641733,
    "longitude": -72.88403
  },
  {
    "type": "CAJERO-UNICARD",
    "name": "RED UNICARD",
    "department": "CUSCO",
    "province": "CUSCO",
    "district": "SICUANI - CANCHIS",
    "address": "AV. AREQUIPA 103",
    "phones": "",
    "latitude": -13.527492,
    "longitude": -71.975663
  },
  {
    "type": "CAJERO-UNICARD",
    "name": "RED UNICARD",
    "department": "ICA",
    "province": "ICA",
    "district": "NAZCA - NAZCA",
    "address": "CALLE ARICA 229",
    "phones": "",
    "latitude": -14.838985,
    "longitude": -74.940405
  },
  {
    "type": "CAJERO-UNICARD",
    "name": "RED UNICARD",
    "department": "PUNO",
    "province": "PUNO",
    "district": "PUNO",
    "address": "JR. AREQUIPA 385",
    "phones": "",
    "latitude": -15.837003,
    "longitude": -70.027939
  },
  {
    "type": "CAJERO-UNICARD",
    "name": "RED UNICARD",
    "department": "MOQUEGUA",
    "province": "MOQUEGUA",
    "district": "MARISCAL NIETO",
    "address": "JR. ANCASH 380",
    "phones": "",
    "latitude": -17.19679,
    "longitude": -70.933056
  },
  {
    "type": "CAJERO-UNICARD",
    "name": "RED UNICARD",
    "department": "LIMA",
    "province": "LIMA",
    "district": "SAN ISIDRO",
    "address": "CANAVAL Y MOREYRA 127",
    "phones": "",
    "latitude": -12.096773,
    "longitude": -77.024621
  },
  {
    "type": "CAJERO-UNICARD",
    "name": "RED UNICARD",
    "department": "LIMA",
    "province": "LIMA",
    "district": "SAN ISIDRO",
    "address": "CANAVAL Y MOREYRA  127",
    "phones": "",
    "latitude": -12.096773,
    "longitude": -77.024621
  },
  {
    "type": "CAJERO-UNICARD",
    "name": "RED UNICARD",
    "department": "LIMA",
    "province": "LIMA",
    "district": "SAN ISIDRO",
    "address": "CANAVAL Y MOREYRA 127",
    "phones": "",
    "latitude": -12.096773,
    "longitude": -77.024621
  },
  {
    "type": "CAJERO-UNICARD",
    "name": "RED UNICARD",
    "department": "LIMA",
    "province": "LIMA",
    "district": "SAN ISIDRO",
    "address": "CANAVAL Y MOREYRA 127",
    "phones": "",
    "latitude": -12.096773,
    "longitude": -77.024621
  },
  {
    "type": "CAJERO-UNICARD",
    "name": "RED UNICARD",
    "department": "AREQUIPA",
    "province": "AREQUIPA",
    "district": "AREQUIPA",
    "address": "CALLE MERCADERES 241",
    "phones": "",
    "latitude": -16.399489,
    "longitude": -71.533324
  },
  {
    "type": "CAJERO-UNICARD",
    "name": "RED UNICARD",
    "department": "AREQUIPA",
    "province": "AREQUIPA",
    "district": "AREQUIPA",
    "address": "CALLE MERCADERES241",
    "phones": "",
    "latitude": -16.39953,
    "longitude": -71.533163
  },
  {
    "type": "CAJERO-UNICARD",
    "name": "RED UNICARD",
    "department": "AREQUIPA",
    "province": "AREQUIPA",
    "district": "MIRAFLORES",
    "address": "AV. MARISCAL CASTILLA 602",
    "phones": "",
    "latitude": -16.38582,
    "longitude": -71.546477
  },
  {
    "type": "CAJERO-UNICARD",
    "name": "RED UNICARD",
    "department": "AREQUIPA",
    "province": "AREQUIPA",
    "district": "PAUCARPATA",
    "address": "AV. JESUS 2510",
    "phones": "",
    "latitude": -16.419522,
    "longitude": -71.488085
  },
  {
    "type": "CAJERO-UNICARD",
    "name": "RED UNICARD",
    "department": "AREQUIPA",
    "province": "AREQUIPA",
    "district": "AREQUIPA",
    "address": "CALLE LA MERCED 100",
    "phones": "",
    "latitude": -16.399191,
    "longitude": -71.537615
  },
  {
    "type": "CAJERO-UNICARD",
    "name": "RED UNICARD",
    "department": "AREQUIPA",
    "province": "AREQUIPA",
    "district": "AREQUIPA",
    "address": "CALLE LA MERCED 100",
    "phones": "",
    "latitude": -16.399335,
    "longitude": -71.537701
  },
  {
    "type": "CAJERO-UNICARD",
    "name": "RED UNICARD",
    "department": "AREQUIPA",
    "province": "AREQUIPA",
    "district": "AREQUIPA",
    "address": "CALLE LA MERCED 100",
    "phones": "",
    "latitude": -16.39952,
    "longitude": -71.537776
  },
  {
    "type": "CAJERO-UNICARD",
    "name": "RED UNICARD",
    "department": "AREQUIPA",
    "province": "AREQUIPA",
    "district": "AREQUIPA",
    "address": "CALLE LA MERCED 100",
    "phones": "",
    "latitude": -16.399705,
    "longitude": -71.537883
  },
  {
    "type": "CAJERO-UNICARD",
    "name": "RED UNICARD",
    "department": "AREQUIPA",
    "province": "AREQUIPA",
    "district": "JOSE LUIS BUSTAMANTE Y RIVERO",
    "address": "AV. DANIEL ALCIDES CARRION 271",
    "phones": "",
    "latitude": -16.408114,
    "longitude": -71.538076
  },
  {
    "type": "CAJERO-UNICARD",
    "name": "RED UNICARD",
    "department": "AREQUIPA",
    "province": "AREQUIPA",
    "district": "CERRO COLORADO",
    "address": "VARIANTE DE UCHUMAYO KM3 ",
    "phones": "",
    "latitude": -16.415009,
    "longitude": -71.663733
  },
  {
    "type": "CAJERO-UNICARD",
    "name": "RED UNICARD",
    "department": "PUNO",
    "province": "PUNO",
    "district": "JULIACA-SAN ROMÁN",
    "address": "JR. DOS DE MAYO 203 ",
    "phones": "",
    "latitude": -15.823914,
    "longitude": -70.030181
  },
  {
    "type": "CAJERO-UNICARD",
    "name": "RED UNICARD",
    "department": "PUNO",
    "province": "PUNO",
    "district": "JULIACA-SAN ROMÁN",
    "address": "JR. TÚPAC AMARU 895-897",
    "phones": "",
    "latitude": -15.836177,
    "longitude": -70.02854
  },
  {
    "type": "CAJERO-UNICARD",
    "name": "RED UNICARD",
    "department": "PUNO",
    "province": "PUNO",
    "district": "JULIACA-SAN ROMÁN",
    "address": "AV. NORMAL 463-471 ESQ. JIRON SAN JUAN DE DIOS 309-313, URB. LAS MERCEDES",
    "phones": "",
    "latitude": -15.483398,
    "longitude": -70.137877
  },
  {
    "type": "CAJERO-UNICARD",
    "name": "RED UNICARD",
    "department": "AREQUIPA",
    "province": "AREQUIPA",
    "district": "CAYMA",
    "address": "AV. EJÉRCITO 1002",
    "phones": "",
    "latitude": -16.387951,
    "longitude": -71.551917
  },
  {
    "type": "CAJERO-UNICARD",
    "name": "RED UNICARD",
    "department": "PUNO",
    "province": "PUNO",
    "district": "PUNO",
    "address": "AV. EL SOL 429 - PUNO",
    "phones": "",
    "latitude": -15.836807,
    "longitude": -70.022907
  },
  {
    "type": "CAJERO-UNICARD",
    "name": "RED UNICARD",
    "department": "LIMA",
    "province": "LIMA",
    "district": "SAN JUAN DE MIRAFLORES",
    "address": "AV. LOS HEROES 682",
    "phones": "",
    "latitude": -12.155745,
    "longitude": -76.968327
  },
  {
    "type": "CAJERO-UNICARD",
    "name": "RED UNICARD",
    "department": "LIMA",
    "province": "LIMA",
    "district": "LOS OLIVOS",
    "address": "AV. ALFREDO MENDIOLA 7893",
    "phones": "",
    "latitude": -11.938801,
    "longitude": -77.072139
  },
  {
    "type": "CAJERO-UNICARD",
    "name": "RED UNICARD",
    "department": "PUNO",
    "province": "PUNO",
    "district": "PUNO",
    "address": "JR. AREQUIPA 835",
    "phones": "",
    "latitude": -15.836868,
    "longitude": -70.027885
  },
  {
    "type": "CAJERO-UNICARD",
    "name": "RED UNICARD",
    "department": "HUÁNUCO",
    "province": "HUÁNUCO",
    "district": "LEONCIO PRADO",
    "address": "AV. ANTONIO RAYMONDI 493",
    "phones": "",
    "latitude": -9.914976,
    "longitude": -76.238224
  },
  {
    "type": "CAJERO-UNICARD",
    "name": "RED UNICARD",
    "department": "UCAYALI",
    "province": "UCAYALI",
    "district": "CALLERIA",
    "address": "JR. LIBERTAD 632",
    "phones": "",
    "latitude": -8.383966,
    "longitude": -74.534748
  },
  {
    "type": "CAJERO-UNICARD",
    "name": "RED UNICARD",
    "department": "MOQUEGUA",
    "province": "MOQUEGUA",
    "district": "ILO",
    "address": "JR. ZEPITA 301",
    "phones": "",
    "latitude": -17.644411,
    "longitude": -71.344239
  },
  {
    "type": "CAJERO-UNICARD",
    "name": "RED UNICARD",
    "department": "TACNA",
    "province": "TACNA",
    "district": "TACNA",
    "address": "AV. SAN MARTÍN 746",
    "phones": "",
    "latitude": -18.01058,
    "longitude": -70.246711
  },
  {
    "type": "CAJERO-UNICARD",
    "name": "RED UNICARD",
    "department": "UCAYALI",
    "province": "UCAYALI",
    "district": "CORONEL PORTILLO",
    "address": "JR. LIBERTAD 632",
    "phones": "",
    "latitude": -8.383966,
    "longitude": -74.534748
  },
  {
    "type": "CAJERO-UNICARD",
    "name": "RED UNICARD",
    "department": "HUÁNUCO",
    "province": "HUÁNUCO",
    "district": "HUÁNUCO",
    "address": "JR. HUALLAYCO 985",
    "phones": "",
    "latitude": -9.926876,
    "longitude": -76.241341
  },
  {
    "type": "CAJERO-UNICARD",
    "name": "RED UNICARD",
    "department": "APURÍMAC",
    "province": "APURÍMAC",
    "district": "ANDAHUAYLAS",
    "address": "JR. RAMÓN CASTILLA 427",
    "phones": "",
    "latitude": -13.657497,
    "longitude": -73.392105
  },
  {
    "type": "CAJERO-UNICARD",
    "name": "RED UNICARD",
    "department": "CUSCO",
    "province": "CUSCO",
    "district": "URUBAMBA",
    "address": "JR. GRAU 521",
    "phones": "",
    "latitude": -13.523022,
    "longitude": -71.977476
  },
  {
    "type": "CAJERO-UNICARD",
    "name": "RED UNICARD",
    "department": "TACNA",
    "province": "TACNA",
    "district": "TACNA",
    "address": "AV. INDUSTRIAL 475 ESQ. CON AV. PINTO 495",
    "phones": "",
    "latitude": -17.997193,
    "longitude": -70.244844
  },
  {
    "type": "CAJERO-UNICARD",
    "name": "RED UNICARD",
    "department": "AREQUIPA",
    "province": "AREQUIPA",
    "district": "AREQUIPA",
    "address": "AV. GOYENECHE 209",
    "phones": "",
    "latitude": -16.402741,
    "longitude": -71.529708
  },
  {
    "type": "CAJERO-UNICARD",
    "name": "RED UNICARD",
    "department": "AREQUIPA",
    "province": "AREQUIPA",
    "district": "JACOBO HUNTER",
    "address": "AV. ARTURO IBAÑEZ E-1",
    "phones": "",
    "latitude": -16.42279,
    "longitude": -71.545329
  },
  {
    "type": "CAJERO-UNICARD",
    "name": "RED UNICARD",
    "department": "ICA",
    "province": "ICA",
    "district": "ICA",
    "address": "AV. JOSÉ MATIAS MANZANILLA 164",
    "phones": "",
    "latitude": -14.044919,
    "longitude": -75.698676
  },
  {
    "type": "CAJERO-UNICARD",
    "name": "RED UNICARD",
    "department": "CUSCO",
    "province": "CUSCO",
    "district": "CUSCO",
    "address": "AV. EL SOL 172",
    "phones": "",
    "latitude": -13.519903,
    "longitude": -71.977079
  },
  {
    "type": "CAJERO-UNICARD",
    "name": "RED UNICARD",
    "department": "AREQUIPA",
    "province": "AREQUIPA",
    "district": "YANAHUARA",
    "address": "AV. DEL EJÉRCITO 117",
    "phones": " ",
    "latitude": -16.38966,
    "longitude": -71.547325
  },
  {
    "type": "CAJERO-UNICARD",
    "name": "RED UNICARD",
    "department": "AREQUIPA",
    "province": "AREQUIPA",
    "district": "JOSE LUIS BUSTAMANTE Y RIVERO",
    "address": "ASOCIACIÓN SUVAA STAND 315",
    "phones": "",
    "latitude": -16.422748,
    "longitude": -71.544685
  },
  {
    "type": "CAJERO-UNICARD",
    "name": "RED UNICARD",
    "department": "TACNA",
    "province": "TACNA",
    "district": "TACNA",
    "address": "AV. BOLOGNESI 462",
    "phones": "",
    "latitude": -18.014666,
    "longitude": -70.249919
  },
  {
    "type": "CAJERO-UNICARD",
    "name": "RED UNICARD",
    "department": "AREQUIPA",
    "province": "AREQUIPA",
    "district": "CAYMA",
    "address": "CENTRO COMERCIAL CAYMA LOCAL 21",
    "phones": "",
    "latitude": -16.380756,
    "longitude": -71.545072
  },
  {
    "type": "CAJERO-UNICARD",
    "name": "RED UNICARD",
    "department": "CUSCO",
    "province": "CUSCO",
    "district": "LA CONVENCIÓN",
    "address": "AV. SAN MARTÍN 403 ESQ. CON EDGAR DE LA TORRE 200",
    "phones": "",
    "latitude": -12.861531,
    "longitude": -72.693186
  },
  {
    "type": "CAJERO-UNICARD",
    "name": "RED UNICARD",
    "department": "AREQUIPA",
    "province": "AREQUIPA",
    "district": "MIRAFLORES",
    "address": "CALLE PUNO 424",
    "phones": "",
    "latitude": -16.395948,
    "longitude": -71.523228
  },
  {
    "type": "CAJERO-UNICARD",
    "name": "RED UNICARD",
    "department": "AYACUCHO",
    "province": "AYACUCHO",
    "district": "HUAMANGA",
    "address": "JR. LIMA 145-2",
    "phones": "",
    "latitude": -13.161146,
    "longitude": -74.224609
  },
  {
    "type": "CAJERO-UNICARD",
    "name": "RED UNICARD",
    "department": "AREQUIPA",
    "province": "AREQUIPA",
    "district": "JOSE LUIS BUSTAMANTE Y RIVERO",
    "address": "AV. DANIEL ALCIDES CARRION 271",
    "phones": "",
    "latitude": -16.408248,
    "longitude": -71.538066
  },
  {
    "type": "CAJERO-UNICARD",
    "name": "RED UNICARD",
    "department": "LIMA",
    "province": "LIMA",
    "district": "CAÑETE",
    "address": "JR. DOS DE MAYO 342",
    "phones": "",
    "latitude": -13.079959,
    "longitude": -76.387703
  },
  {
    "type": "CAJERO-UNICARD",
    "name": "RED UNICARD",
    "department": "LIMA",
    "province": "LIMA",
    "district": "CERCADO",
    "address": "JR. MIROQUESADA 179",
    "phones": "",
    "latitude": -12.048276,
    "longitude": -77.032222
  },
  {
    "type": "CAJERO-UNICARD",
    "name": "RED UNICARD",
    "department": "AREQUIPA",
    "province": "AREQUIPA",
    "district": "CERCADO",
    "address": "CLORINDA MATTO DE TURNER 116",
    "phones": "",
    "latitude": -16.417057,
    "longitude": -71.532701
  },
  {
    "type": "CAJERO-UNICARD",
    "name": "RED UNICARD",
    "department": "MOQUEGUA",
    "province": "MOQUEGUA",
    "district": "MOLLENDO",
    "address": "CALLE BOLOGNESI 101",
    "phones": "",
    "latitude": -17.646864,
    "longitude": -71.341084
  },
  {
    "type": "CAJERO-UNICARD",
    "name": "RED UNICARD",
    "department": "AREQUIPA",
    "province": "AREQUIPA",
    "district": "JOSE LUIS BUSTAMANTE Y RIVERO",
    "address": "AV. ALCIDES CARRIÓN 232",
    "phones": " ",
    "latitude": -16.409519,
    "longitude": -71.536505
  },
  {
    "type": "CAJERO-UNICARD",
    "name": "RED UNICARD",
    "department": "AREQUIPA",
    "province": "AREQUIPA",
    "district": "AREQUIPA",
    "address": "CALLE PERÚ 324",
    "phones": "",
    "latitude": -16.403179,
    "longitude": -71.534418
  },
  {
    "type": "CAJERO-UNICARD",
    "name": "RED UNICARD",
    "department": "CUSCO",
    "province": "CUSCO",
    "district": "CUSCO",
    "address": "AV. RAMÓN ZAVALETA 115",
    "phones": "",
    "latitude": -13.525515,
    "longitude": -71.970921
  },
  {
    "type": "CAJERO-UNICARD",
    "name": "RED UNICARD",
    "department": "AREQUIPA",
    "province": "AREQUIPA",
    "district": "CERCADO",
    "address": "CALLE MERCADERES 101",
    "phones": "",
    "latitude": -16.399489,
    "longitude": -71.533313
  },
  {
    "type": "CAJERO-UNICARD",
    "name": "RED UNICARD",
    "department": "AREQUIPA",
    "province": "AREQUIPA",
    "district": "CERCADO",
    "address": "CALLE MERCADERES 101",
    "phones": "",
    "latitude": -16.399489,
    "longitude": -71.533313
  },
  {
    "type": "CAJERO-UNICARD",
    "name": "RED UNICARD",
    "department": "AREQUIPA",
    "province": "AREQUIPA",
    "district": "JULIACA",
    "address": "AEROPUERTO JULIACA, SAN ROMAN",
    "phones": "",
    "latitude": -15.472707,
    "longitude": -70.144186
  },
  {
    "type": "CAJERO-UNICARD",
    "name": "RED UNICARD",
    "department": "AREQUIPA",
    "province": "AREQUIPA",
    "district": "AREQUIPA",
    "address": "AV. TENIENTE FERRE 210, MIRAFLORES",
    "phones": " ",
    "latitude": -16.400705,
    "longitude": -71.515276
  },
  {
    "type": "CAJERO-UNICARD",
    "name": "RED UNICARD",
    "department": "AREQUIPA",
    "province": "AREQUIPA",
    "district": "CERRO COLORADO",
    "address": "CALLE ALFONSO UGARTE 408 - PLAZA LAS AMERICAS",
    "phones": "",
    "latitude": "",
    "longitude": ""
  },
  {
    "type": "CAJERO-UNICARD",
    "name": "RED UNICARD",
    "department": "AYACUCHO",
    "province": "AYACUCHO",
    "district": "HUAMANGA",
    "address": "JR. LIMA 145-2",
    "phones": "",
    "latitude": -13.161266,
    "longitude": -74.224631
  },
  {
    "type": "CAJERO-UNICARD",
    "name": "RED UNICARD",
    "department": "AREQUIPA",
    "province": "AREQUIPA",
    "district": "CAYMA",
    "address": "AV. EL EJÉRCITO 793",
    "phones": "",
    "latitude": -16.390164,
    "longitude": -71.546493
  },
  {
    "type": "CAJERO-UNICARD",
    "name": "RED UNICARD",
    "department": "AREQUIPA",
    "province": "AREQUIPA",
    "district": "JOSE LUIS BUSTAMANTE Y RIVERO",
    "address": "ESQ. AV. DOLORES CON AV. EEUU - GRIFO MONTERREY",
    "phones": "",
    "latitude": -16.428823,
    "longitude": -71.524059
  },
  {
    "type": "CAJERO-UNICARD",
    "name": "RED UNICARD",
    "department": "AREQUIPA",
    "province": "AREQUIPA",
    "district": "MIRAFLORES",
    "address": "AV. PROGRESO 631",
    "phones": "",
    "latitude": -16.393828,
    "longitude": -71.521447
  },
  {
    "type": "CAJERO-UNICARD",
    "name": "RED UNICARD",
    "department": "AREQUIPA",
    "province": "AREQUIPA",
    "district": "MIRAFLORES",
    "address": "AV. TENIENTE FERRE 210",
    "phones": "",
    "latitude": -16.400467,
    "longitude": -71.51531
  },
  {
    "type": "CAJERO-UNICARD",
    "name": "RED UNICARD",
    "department": "AREQUIPA",
    "province": "AREQUIPA",
    "district": "CASTILLA",
    "address": "PLAZA 28 DE JULIO 203",
    "phones": "",
    "latitude": -16.403184,
    "longitude": -71.540201
  },
  {
    "type": "CAJERO-UNICARD",
    "name": "RED UNICARD",
    "department": "LIMA",
    "province": "LIMA",
    "district": "SAN JUAN DE LURIGANCHO",
    "address": "AV. PRÓCERES DE LA INDEPENDENCIA 3220",
    "phones": "",
    "latitude": -12.003894,
    "longitude": -77.007229
  },
  {
    "type": "CAJERO-UNICARD",
    "name": "RED UNICARD",
    "department": "AREQUIPA",
    "province": "AREQUIPA",
    "district": "CAYMA",
    "address": "AV. EJÉRCITO 1002",
    "phones": "",
    "latitude": -16.388064,
    "longitude": -71.551976
  },
  {
    "type": "CAJERO-UNICARD",
    "name": "RED UNICARD",
    "department": "AREQUIPA",
    "province": "AREQUIPA",
    "district": "CAYMA",
    "address": "AV. EJÉRCITO 1002",
    "phones": "",
    "latitude": -16.388064,
    "longitude": -71.551976
  },
  {
    "type": "CAJERO-UNICARD",
    "name": "RED UNICARD",
    "department": "AREQUIPA",
    "province": "AREQUIPA",
    "district": "ALTO SELVA ALEGRE",
    "address": "AV. MARISCAL BENAVIDES 101",
    "phones": "",
    "latitude": -16.390658,
    "longitude": -71.531671
  }
]